id;name;lon;lat;kwds
N29318897;U Kurfürstenstraße;13.3619354;52.4999215;transport,subway
N29324017;U Mendelssohn-Bartholdy-Park;13.3749525;52.5039000;transport,subway
N29334078;Abschnitt 26;13.3054470;52.4856723;amenity,police
N29334080;Schmargendorf;13.2929962;52.4789022;poi,suburb
N29336704;Charlottenburg;13.3096834;52.5157470;poi,suburb
N29336705;Westend;13.2558416;52.5133992;poi,suburb
N29336992;Halensee;13.2929986;52.4972262;poi,suburb
N29337165;Grunewald;13.2637538;52.4873475;poi,suburb
N29421304;Malchow/Dorfstraße;13.4827218;52.5795436;transport,busstop
N29421338;Wartenberg;13.5191298;52.5743651;poi,suburb
N29423020;S Pankow-Heinersdorf;13.4299064;52.5783453;transport,station
N29494288;U Heinrich-Heine-Straße;13.4159741;52.5104710;transport,subway
N29494289;U Moritzplatz;13.4106040;52.5036644;transport,subway
N29494292;U Schönleinstraße;13.4220998;52.4931022;transport,subway
N29494301;U Jannowitzbrücke;13.4181732;52.5153554;transport,subway
N29494305;U Boddinstraße;13.4253259;52.4801908;transport,subway
N29494306;U Leinestraße;13.4284168;52.4729946;transport,subway
N29494563;U Eberswalder Straße;13.4122415;52.5415356;transport,subway
N29495029;U Klosterstraße;13.4125273;52.5172066;transport,subway
N29495034;U Märkisches Museum;13.4102013;52.5123062;transport,subway
N29495041;U Hausvogteiplatz;13.3955568;52.5133073;transport,subway
N29495047;U Mohrenstraße;13.3858515;52.5118130;transport,subway
N29495049;U Potsdamer Platz;13.3783037;52.5091340;transport,subway
N29495891;U Bülowstraße;13.3631731;52.4975794;transport,subway
N29497638;S+U Innsbrucker Platz;13.3436736;52.4789870;transport,subway
N29581227;Lockenhuhnweg;13.4924693;52.4084888;transport,busstop
N29621202;Mahlsdorf;13.6118588;52.5060776;poi,hamlet
N29657606;Tempelhofer Damm/U Ullsteinstraße;13.3845666;52.4558368;transport,busstop
N29658451;Mariendorfer Weg;13.4230981;52.4630719;transport,busstop
N29683689;Zentralpunkt Rauenberg;13.3663100;52.4518300;tourist,memorial
N29690313;U Kurt-Schumacher-Platz;13.3271376;52.5631787;transport,subway
N29695282;Abschnitt 33;13.3536389;52.5336632;amenity,police
N29711661;Vivantes Humboldt-Klinikum;13.3089004;52.5896924;health,hospital
N29768691;Blankenburg;13.4541825;52.5932110;poi,suburb
N29769442;Asbestweg;13.4151414;52.4214256;transport,busstop
N29769444;Tropfsteinweg;13.4145326;52.4237583;transport,busstop
N29786332;U Podbielskiallee;13.2960006;52.4641373;transport,subway
N29786335;U Breitenbachplatz;13.3088779;52.4669659;transport,subway
N29787634;U Schlesisches Tor;13.4414409;52.5008434;transport,subway
N29787639;U Görlitzer Bahnhof;13.4276166;52.4992535;transport,subway
N29803428;S Rummelsburg;13.4783994;52.5012717;transport,station
N29805120;Berlin Friedrichstraße;13.3870305;52.5200215;transport,station
N29805967;Berlin-Lichtenberg;13.4961404;52.5097832;transport,station
N29808933;Waldowallee;13.5314201;52.4839472;transport,busstop
N29809225;S Karlshorst;13.5265810;52.4808666;transport,station
N29831325;Schlossparktheater;13.3190702;52.4543216;transport,busstop
N29833425;U Konstanzer Straße;13.3092859;52.4941849;transport,subway
N29833469;U Bayerischer Platz;13.3405436;52.4885755;transport,subway
N29833491;U Adenauerplatz;13.3073990;52.5002423;transport,subway
N29846059;Karolinenhöhe;13.1681286;52.5087409;transport,busstop
N29858077;Rebhuhnweg;13.5580236;52.5448333;transport,busstop
N29858105;Rebhuhnweg;13.5577215;52.5451018;transport,busstop
N29858596;S Marzahn;13.5413545;52.5436548;transport,station
N29865953;Conradstraße;13.1615780;52.4201728;transport,busstop
N29880185;U Biesdorf-Süd;13.5463969;52.4996743;transport,subway
N29881347;S+U Wuhletal;13.5740744;52.5127753;transport,station
N29881358;S+U Wuhletal;13.5752134;52.5126122;transport,station
N29884257;Dirschelweg;13.4006445;52.4448679;transport,busstop
N29884993;Buckower Ring;13.5655065;52.5255432;transport,busstop
N29885006;Blumberger Damm/Elisabethstraße;13.5659183;52.5333616;transport,busstop
N29885013;Biesdorf-Nord;13.5598638;52.5197568;poi,hamlet
N29885025;Rudolf-Leonhard-Straße;13.5725168;52.5494669;transport,busstop
N29885038;Rebhuhnweg;13.5580183;52.5448949;transport,busstop
N29885043;Hinter der Mühle;13.5619091;52.5447064;transport,busstop
N29885055;Rebhuhnweg;13.5577336;52.5450337;transport,busstop
N29885059;Hinter der Mühle;13.5618724;52.5448821;transport,busstop
N29885343;Jan-Petersen-Straße;13.5615496;52.5473777;transport,busstop
N29885348;Paul-Dessau-Straße;13.5547158;52.5488372;transport,busstop
N29885360;Jan-Petersen-Straße;13.5610402;52.5472784;transport,busstop
N29885367;S Raoul-Wallenberg-Straße;13.5493027;52.5504132;transport,busstop
N29916131;Schwarzburger Straße;13.5742267;52.5604640;transport,busstop
N29918297;S Mahlsdorf;13.6104126;52.5120903;transport,station
N29918552;Nossener Straße;13.6075763;52.5337399;transport,busstop
N29921532;S Oberspree;13.5384858;52.4525491;transport,station
N29921550;S Schöneweide;13.5099724;52.4545564;transport,station
N29925371;S Köllnische Heide;13.4677242;52.4696575;transport,station
N29927324;dm;13.3294408;52.5275057;shop,convenience
N29960085;Adrema;13.3292505;52.5232817;accommodation,hotel
N29997721;Rasthof AVUS;13.2766696;52.5014954;accommodation,motel
N29997723;Aral Tankstelle;13.2809474;52.5083702;transport,fuel
N29997724;La Pergola;13.2846256;52.5063184;food,restaurant
N30012753;Umspannwerk;13.4291868;52.4940425;tourist,art
N30012754;Eiscafe Eisberg;13.3960965;52.5388551;food,cafe
N30015304;Deutsche Bank;13.3216306;52.4575403;money,bank
N30019733;S Rathaus Steglitz;13.3224998;52.4555293;transport,station
N30019971;S Feuerbachstraße;13.3326737;52.4637484;transport,station
N30020303;Tibet Haus;13.3939814;52.4907103;food,restaurant
N30022140;Curry 36;13.3877282;52.4935584;food,fastfood
N30057218;Bistro Öz Tadim;13.3338667;52.5243061;food,fastfood
N30061331;Moabiter Hifi-Shop;13.3379438;52.5251554;shop,hifi
N30061337;Internet Tele-Café;13.3391497;52.5254386;shop,convenience
N30134871;Ludwigsfelder Straße/Sachtlebenstraße;13.2501119;52.4188459;transport,busstop
N30134980;Lichterfelder Weg;13.2944944;52.4198370;transport,busstop
N30206148;Berlin Gesundbrunnen;13.3894409;52.5485016;transport,station
N30206151;Berlin Gesundbrunnen;13.3894656;52.5482964;transport,station
N30206819;Berlin Gesundbrunnen;13.3894488;52.5488704;transport,station
N30244857;Waidmannslust;13.3212837;52.6063129;transport,station
N30244899;S Hermsdorf;13.3077471;52.6173738;transport,station
N30245009;S Wittenau;13.3343741;52.5970726;transport,station
N30245020;S Frohnau;13.2904226;52.6323629;transport,station
N30302050;Seestraße/Amrumer Straße;13.3448955;52.5467137;transport,tramstop
N30303888;Schönhauser Allee/Bornholmer Straße;13.4138898;52.5537705;transport,tramstop
N30303894;Björnsonstraße;13.4026406;52.5552992;transport,tramstop
N30303950;Schönhauser Allee/Bornholmer Straße;13.4144934;52.5542024;transport,tramstop
N30303956;Stahlheimer Straße/Wisbyer Straße;13.4238019;52.5527208;transport,tramstop
N30304940;Prenzlauer Allee/Ostseestraße;13.4295126;52.5514112;transport,tramstop
N30304944;Prenzlauer Allee/Ostseestraße;13.4300239;52.5507797;transport,busstop
N30304965;Prenzlauer Promenade/Am Steinberg;13.4299757;52.5566797;transport,tramstop
N30305102;S Prenzlauer Allee;13.4276150;52.5452352;transport,tramstop
N30305106;Prenzlauer Allee/Danziger Straße;13.4244789;52.5396522;transport,tramstop
N30305107;Prenzlauer Allee/Danziger Straße;13.4239927;52.5387510;transport,tramstop
N30305113;Prenzlauer Allee/Danziger Straße;13.4247253;52.5390589;transport,tramstop
N30305114;Winsstraße;13.4280120;52.5379014;transport,tramstop
N30305118;Winsstraße;13.4294264;52.5374435;transport,tramstop
N30305213;Masurenstraße;13.4127866;52.5632037;transport,tramstop
N27134238;Badestelle;13.0840999;52.4047686;sport,swimming
N27134815;Wannseebrücke;13.1742621;52.4203295;transport,busstop
N27176639;Otisstraße;13.3005224;52.5697129;transport,busstop
N27176711;S Tegel;13.2898709;52.5881388;transport,station
N27186919;S Schöneberg;13.3512735;52.4789576;transport,station
N27186974;S Schöneberg;13.3529104;52.4797246;transport,busstop
N27195071;Storkower Straße/Paul-Junius-Straße;13.4724864;52.5229872;transport,busstop
N27199766;S Karl-Bonhoeffer-Nervenklinik;13.3291599;52.5780444;transport,station
N27199769;S Alt-Reinickendorf;13.3507727;52.5778081;transport,station
N27215654;S Grunewald;13.2610104;52.4882479;transport,station
N27239370;Hahneberg;13.1449355;52.5238455;transport,busstop
N27245242;Seeburger Chaussee;13.1114149;52.5185608;transport,busstop
N27245246;Seeburger Chaussee;13.1109286;52.5190743;transport,busstop
N27252307;S Mexikoplatz;13.2332646;52.4368079;transport,station
N27252562;S Zehlendorf;13.2577553;52.4309245;transport,station
N27252628;Schönower Park;13.2609246;52.4260501;transport,busstop
N27259583;Esso;13.3413153;52.5197229;transport,fuel
N27318009;Loretta;13.1763510;52.4200950;food,biergarten
N27318370;S Griebnitzsee;13.1272716;52.3944579;transport,station
N27325589;S Bundesplatz;13.3294560;52.4775952;transport,station
N27325925;S Innsbrucker Platz;13.3425248;52.4780471;transport,station
N27374983;S Schlachtensee;13.2148203;52.4400364;transport,station
N27378775;Freiwillige Feuerwehr Bohnsdorf;13.5743044;52.4016830;amenity,firestation
N27378816;Lindenstraße/Waltersdorfer Straße;13.5723739;52.3925166;transport,busstop
N27380127;Bohnsdorf;13.5706649;52.4022426;poi,suburb
N27409122;SUN;13.3029397;52.5188609;transport,fuel
N27411231;S Alexanderplatz;13.4113816;52.5214176;transport,station
N27411240;S Hackescher Markt;13.4023469;52.5226166;transport,station
N27412232;S Friedrichstraße;13.3871988;52.5203431;transport,station
N27412648;S Hauptbahnhof;13.3700300;52.5251819;transport,station
N27424921;Berlin Potsdamer Platz;13.3756363;52.5093176;transport,station
N27429866;S Priesterweg;13.3560389;52.4599420;transport,station
N27431777;Luftbrückendenkmal;13.3874049;52.4841350;tourist,memorial
N27432374;S Botanischer Garten;13.3069148;52.4479520;transport,station
N27433551;S Südende;13.3536687;52.4482973;transport,station
N27446265;Regattastraße/Sportpromenade;13.5983058;52.4104296;transport,tramstop
N27452977;Alsterweg;13.2768744;52.4131189;transport,busstop
N27466530;S Heiligensee;13.2292560;52.6247157;transport,station
N27491810;S Lichterfelde Süd;13.3084508;52.4099655;transport,station
N27527830;S Westkreuz;13.2841298;52.5003915;transport,station
N27537403;Obentrautstraße/U Mehringdamm;13.3896130;52.4953617;transport,busstop
N27540514;S Tempelhof;13.3835184;52.4712316;transport,station
N27542070;Späthstraße/Ligusterweg;13.4690691;52.4519620;transport,busstop
N27554979;S Hermannstraße;13.4314548;52.4676074;transport,station
N27556933;Berlin Zoologischer Garten;13.3325608;52.5074342;transport,station
N27586255;U Ruhleben;13.2414191;52.5256744;transport,subway
N27586338;Krematorium Ruhleben;13.2319196;52.5277933;transport,busstop
N27586412;Güterbahnhof Ruhleben;13.2203799;52.5283590;transport,busstop
N27586437;Teltower Straße;13.2151464;52.5269200;transport,busstop
N27586473;Esso Tankstelle;13.2104120;52.5273037;transport,fuel
N27587012;U-Bahnhof Olympia-Stadion;13.2491365;52.5164870;transport,busstop
N27587041;U Olympia-Stadion;13.2505177;52.5169071;transport,subway
N27587988;Werkring;13.2386931;52.5287680;transport,busstop
N27785719;U Nollendorfplatz;13.3542350;52.4997643;transport,subway
N28092581;S Yorckstraße (Großgörschenstraße);13.3683387;52.4927721;transport,station
N28094136;Schöneberg;13.3551901;52.4821570;poi,suburb
N28206081;Flughafen Tegel;13.2930471;52.5541195;transport,busstop
N28236820;U Blissestraße;13.3205845;52.4860710;transport,busstop
N28300448;U Osloer Straße;13.3729953;52.5572495;transport,busstop
N28469425;Berlin-Spandau;13.1956022;52.5348439;transport,station
N28472308;Melanchthonplatz;13.1893617;52.5211506;transport,busstop
N28795490;Niederschöneweide;13.5178766;52.4548197;poi,suburb
N28795831;Oberschöneweide;13.5234762;52.4624563;poi,suburb
N28830281;S Karow;13.4694647;52.6152148;transport,station
N28891708;Wilmersdorf;13.3203298;52.4871152;poi,suburb
N28968292;Berliner Volksbank eG;13.3197230;52.4866675;money,bank
N28968294;Deutsche Post;13.3225060;52.4890740;amenity,postoffice
N28968295;Postbank AG;13.3224941;52.4890244;money,bank
N29018503;Teltow;13.2644532;52.4016457;poi,town
N29040731;Sultan Ahmed Camii;13.3587758;52.5347753;pow,islamic
N29040741;Filmrauschpalast in der Kulturfabrik;13.3596231;52.5343784;tourist,cinema
N29045592;U Birkenstraße;13.3412350;52.5320987;transport,subway
N29045594;S+U Westhafen;13.3423432;52.5364786;transport,subway
N29045595;U Amrumer Straße;13.3501546;52.5423332;transport,subway
N29045597;U Amrumer Straße;13.3494883;52.5421459;transport,subway
N29046165;U Nauener Platz;13.3672268;52.5513890;transport,subway
N29046167;U Osloer Straße;13.3733220;52.5571340;transport,subway
N29046444;U Turmstraße;13.3414269;52.5264025;transport,subway
N29046446;U Hansaplatz;13.3420120;52.5177461;transport,subway
N29046450;U Zoologischer Garten;13.3330236;52.5058669;transport,subway
N29046970;U Kurfürstendamm;13.3314365;52.5038223;transport,subway
N29046976;U Güntzelstraße;13.3310064;52.4920843;transport,subway
N29046979;U Berliner Straße;13.3310103;52.4873298;transport,subway
N29046990;U Bundesplatz;13.3284196;52.4774637;transport,subway
N29046999;U Friedrich-Wilhelm-Platz;13.3287301;52.4721217;transport,subway
N29047042;U Friedrich-Wilhelm-Platz;13.3286106;52.4717109;transport,subway
N29047043;U Walther-Schreiber-Platz;13.3282601;52.4653254;transport,subway
N29047045;U Schloßstraße;13.3250946;52.4614810;transport,subway
N29047047;U Rathaus Steglitz;13.3209192;52.4568021;transport,subway
N29057786;U Afrikanische Straße;13.3348890;52.5600134;transport,subway
N29058100;U Oranienburger Tor;13.3872745;52.5256031;transport,subway
N29058259;U Französische Straße;13.3891706;52.5148248;transport,subway
N29058263;U Mehringdamm;13.3886320;52.4943660;transport,subway
N29058343;S+U Tempelhof;13.3856773;52.4699261;transport,subway
N29058344;U Alt-Tempelhof;13.3857370;52.4657118;transport,subway
N29070457;S Beusselstraße;13.3293873;52.5344077;transport,station
N29071031;Bruno-Lösche-Bibliothek;13.3475136;52.5312448;amenity,library
N29123754;U Theodor-Heuss-Platz;13.2722217;52.5099869;transport,subway
N29123761;U Neu-Westend;13.2592357;52.5162154;transport,subway
N29123762;U Sophie-Charlotte-Platz;13.2958152;52.5108916;transport,subway
N29123763;U Deutsche Oper;13.3105328;52.5118370;transport,subway
N29123764;U Ernst-Reuter-Platz;13.3221613;52.5118853;transport,subway
N29186788;Hicret Camii;13.3515338;52.5332210;pow,islamic
N29190890;U Franz-Neumann-Platz;13.3638451;52.5645265;transport,subway
N29190895;U Paracelsus-Bad;13.3493359;52.5741590;transport,subway
N29190897;U Lindauer Allee;13.3384251;52.5754161;transport,subway
N29190907;S+U Gesundbrunnen;13.3884238;52.5488187;transport,subway
N29190908;U Voltastraße;13.3931106;52.5421132;transport,subway
N29190909;U Bernauer Straße;13.3967379;52.5374437;transport,subway
N29209293;Blücherstraße;13.3955847;52.4960426;transport,busstop
N29273261;S Messe Nord/ICC;13.2853808;52.5070375;transport,busstop
N172548;Londoner Straße;13.3422935;52.5635192;transport,busstop
N530191;Kaserne Nordtor;13.3170901;52.5599025;transport,busstop
N530219;U-Bahnhof Lindauer Allee;13.3392778;52.5754256;transport,busstop
N530279;Lindauer Allee/Residenzstraße;13.3595757;52.5730067;transport,busstop
N12615199;Galenusstraße;13.4287678;52.5818183;transport,busstop
N16541597;Aral;13.3454394;52.5464403;transport,fuel
N21302157;S Tiergarten;13.3364504;52.5143746;transport,station
N21385742;S Frankfurter Allee;13.4742384;52.5156610;transport,station
N21484050;Karlshorst;13.5233553;52.4837034;poi,suburb
N21484076;Schmöckwitz;13.6488551;52.3756651;poi,suburb
N21484102;Adlershof;13.5475496;52.4378932;poi,suburb
N21487255;Trabener Steg;13.2818558;52.4977737;transport,busstop
N21509167;Berliner Straße;13.7420738;52.4280634;transport,busstop
N21538161;Zehntwerderweg;13.3174434;52.6116707;transport,busstop
N21538167;Waidmannsluster Damm/Oraniendamm;13.3242424;52.6075234;transport,busstop
N21538173;Seeweg;13.5336913;52.3947501;transport,busstop
N26124364;S Jungfernheide;13.2992640;52.5304677;transport,station
N26124376;S Westend;13.2844201;52.5180135;transport,station
N26124401;Berlin Gesundbrunnen;13.3894369;52.5486588;transport,station
N26130448;S Nikolassee;13.1930501;52.4320176;transport,station
N26603219;S Berlin-Wannsee;13.1798077;52.4214071;transport,station
N26627348;S Feuerbachstraße;13.3318837;52.4638220;transport,busstop
N26662472;Eisenzahnstraße;13.3041907;52.4936372;transport,busstop
N26703050;Großer Stern;13.3513134;52.5155249;transport,busstop
N26729575;Vionvillestraße;13.3298163;52.4455653;transport,busstop
N26735749;Aida;13.3228318;52.5069115;food,restaurant
N26735759;Madame Ngo;13.3180919;52.5062068;food,restaurant
N26735763;Lemongrass;13.3207848;52.5073388;food,restaurant
N26739106;Roseneck;13.2819700;52.4765537;transport,busstop
N26739124;Roseneck/Teplitzer Straße;13.2807311;52.4771839;transport,busstop
N26745944;Trabener Steg;13.2831476;52.4975621;transport,busstop
N26756830;Aral;13.3281941;52.5308248;transport,fuel
N26763074;Breitscheidplatz;13.3364722;52.5052308;transport,busstop
N26784428;Schlossbrücke;13.2997182;52.5230995;transport,busstop
N26784992;Zillestraße;13.2970100;52.5128874;transport,busstop
N26787974;Breitscheidplatz;13.3368513;52.5051048;transport,busstop
N26790049;Goerdelerdamm;13.2981107;52.5349384;transport,busstop
N26838137;Hasensprung;13.2714788;52.4866640;transport,busstop
N26840974;Paulsenstraße;13.3140520;52.4653557;transport,busstop
N26849064;U Friedrich-Wilhelm-Platz;13.3282799;52.4708485;transport,busstop
N26865440;Spinnerbrücke;13.1907340;52.4333644;food,biergarten
N26867411;Bavaria petrol;13.2943790;52.5018511;transport,fuel
N26868080;Masurenallee/Zentraler Omnibusbahnhof;13.2789868;52.5067462;transport,busstop
N26882421;Aral;13.3206691;52.4842654;transport,fuel
N26905943;S Zehlendorf;13.2589892;52.4322811;transport,busstop
N26906113;Zehlendorf Eiche;13.2613783;52.4348397;transport,busstop
N26906145;S Sundgauer Straße;13.2739864;52.4364446;transport,station
N26906574;S Rathaus Steglitz;13.3217837;52.4550478;transport,station
N26906615;Carmerplatz;13.3195499;52.4524510;transport,busstop
N26906844;S+U Rathaus Steglitz;13.3222498;52.4564804;transport,busstop
N26907961;Friedenauer Brücke;13.3371071;52.4674008;transport,busstop
N26907963;Friedenauer Brücke;13.3367371;52.4673717;transport,busstop
N26908540;S Friedenau;13.3409812;52.4703937;transport,station
N26925638;U Oskar-Helene-Heim;13.2690559;52.4503065;transport,subway
N26925644;U Freie Universität (Thielplatz);13.2818510;52.4510332;transport,subway
N26938228;Marchstraße;13.3206155;52.5134627;transport,busstop
N26943869;S Pichelsberg;13.2276304;52.5101503;transport,station
N26965927;Siriusstraße;13.5218900;52.4021310;transport,busstop
N26972366;Konrad Zuse;13.3472206;52.5227738;tourist,memorial
N26984675;An der Mühle;13.2811083;52.5933337;transport,busstop
N26992409;Poststadion;13.3626412;52.5298289;transport,busstop
N27007776;U Jakob-Kaiser-Platz;13.2939716;52.5368182;transport,busstop
N27008283;Stieffring;13.3131570;52.5441714;transport,busstop
N27011265;Großer Stern;13.3514252;52.5154139;transport,busstop
N27088369;AGIP Service Station;13.1916491;52.4345195;transport,fuel
N30325044;S Attilastraße;13.3609751;52.4474207;transport,station
N30352438;S Lankwitz;13.3421759;52.4388305;transport,station
N30353065;S Yorckstraße;13.3720151;52.4914726;transport,station
N30353079;S Potsdamer Platz;13.3763912;52.5092642;transport,station
N30353449;S Oranienburger Straße;13.3928834;52.5251817;transport,station
N30355461;Seglerweg;13.1617340;52.4241299;transport,busstop
N30355483;Zum Heckeshorn;13.1611146;52.4304198;transport,busstop
N30429048;Deutsche Post;13.3035771;52.5258496;amenity,postoffice
N30433678;Packereigraben;13.3611449;52.5998761;transport,busstop
N30499115;S Adlershof;13.5417397;52.4344971;transport,station
N30499135;S Betriebsbahnhof Schöneweide;13.5244274;52.4463820;transport,station
N30554096;Galenusstraße;13.4286031;52.5818062;transport,tramstop
N30554100;S Pankow-Heinersdorf;13.4276065;52.5773178;transport,tramstop
N30554105;Mendelstraße;13.4192595;52.5750424;transport,tramstop
N30554110;Pankow Kirche;13.4106462;52.5711693;transport,tramstop
N30558129;Rosenthaler Straße;13.4328760;52.5963300;transport,tramstop
N30558144;Blankenburger Weg;13.4358026;52.5921343;transport,busstop
N30561497;Pastor-Niemöller-Platz;13.3971487;52.5800861;transport,tramstop
N30561525;Am Iderfenngraben;13.3921183;52.5826221;transport,tramstop
N30622121;Glienicker Brücke;13.0845469;52.4112358;transport,tramstop
N30624388;Darßer Straße/Roelckestraße;13.4641268;52.5666008;transport,busstop
N30624434;Rathaus Weißensee;13.4665158;52.5600396;transport,busstop
N30624481;Pasedagplatz;13.4602303;52.5599523;transport,tramstop
N30624724;Stadion Buschallee/Hansastraße;13.4859771;52.5566622;transport,busstop
N30625116;Sulzfelder Straße;13.4760326;52.5533362;transport,tramstop
N30625117;Piesporter Straße;13.4762139;52.5603643;transport,busstop
N30625140;Neumagener Straße;13.4723603;52.5598225;transport,busstop
N30625200;Neumagener Straße;13.4733510;52.5599273;transport,busstop
N30625241;Buschallee/Hansastraße;13.4803740;52.5531858;transport,tramstop
N30683629;Berliner Allee/Indira-Gandhi-Straße;13.4659029;52.5513370;transport,busstop
N30684945;Buschallee/Hansastraße;13.4805827;52.5537608;transport,tramstop
N30684954;Feldtmannstraße;13.4957417;52.5599400;transport,tramstop
N30684955;Hansastraße/Malchower Weg;13.4999139;52.5613788;transport,tramstop
N30684982;Altenhofer Straße;13.4796271;52.5351107;transport,tramstop
N30684987;Landsberger Allee/Weißenseer Weg;13.4767050;52.5322580;transport,tramstop
N30688290;S Hohenschönhausen;13.5124988;52.5662755;transport,station
N30688292;S Wartenberg;13.5038322;52.5729820;transport,station
N30689860;Prerower Platz;13.5063408;52.5636582;transport,tramstop
N30689934;Prerower Platz;13.5046117;52.5638559;transport,tramstop
N30689973;Zingster Straße/Ribnitzer Straße;13.4973963;52.5701623;transport,tramstop
N30690013;Falkenberger Chaussee/Prendener Straße;13.5195036;52.5685922;transport,busstop
N30690321;Falkenberger Chaussee/Prendener Straße;13.5203116;52.5685773;transport,tramstop
N30690550;Ahrenshooper Straße;13.5020039;52.5661358;transport,tramstop
N30691227;Falkenberg;13.5265973;52.5698521;transport,tramstop
N30692597;Gehrenseestraße;13.5091917;52.5508086;transport,tramstop
N30693019;Oderbruchstraße;13.4614989;52.5304930;transport,tramstop
N30694255;Zechliner Straße;13.4869072;52.5339085;transport,tramstop
N30694268;Genslerstraße;13.4948777;52.5343884;transport,tramstop
N30694279;Arendsweg;13.5066484;52.5349408;transport,tramstop
N30694284;Landsberger Allee/Rhinstraße;13.5181868;52.5357322;transport,tramstop
N30694289;Dingelstädter Straße;13.5244371;52.5366428;transport,tramstop
N30694295;Gewerbepark Georg Knorr;13.5341226;52.5390995;transport,tramstop
N30694319;Freizeitforum Marzahn;13.5573658;52.5465009;transport,tramstop
N30694331;Max-Herrmann-Straße;13.5654780;52.5537187;transport,tramstop
N30694334;Jan-Petersen-Straße;13.5619425;52.5472111;transport,tramstop
N30694352;Wuhletalstraße;13.5682656;52.5577949;transport,tramstop
N30694375;Niemegker Straße;13.5718597;52.5650162;transport,tramstop
N30694376;Barnimplatz;13.5747394;52.5682711;transport,tramstop
N30694391;Ahrensfelde/Stadtgrenze;13.5741703;52.5726002;transport,tramstop
N30694394;Landsberger Allee/Blumberger Damm;13.5727637;52.5464074;transport,tramstop
N30694396;Brodowiner Ring;13.5787187;52.5479864;transport,tramstop
N30694741;Landsberger Chaussee/Zossener Straße;13.5871424;52.5490921;transport,tramstop
N30694746;Michendorfer Straße;13.5874389;52.5454675;transport,tramstop
N30694748;Zossener Straße/Kastanienallee;13.5989829;52.5438862;transport,tramstop
N30694767;Riesaer Straße/Louis-Lewin-Straße;13.6211514;52.5307487;transport,tramstop
N30694780;Riesaer Straße;13.6234802;52.5293720;transport,tramstop
N30694949;Beilsteiner Straße;13.5304721;52.5254790;transport,tramstop
N30694953;Allee der Kosmonauten/Rhinstraße;13.5211177;52.5258353;transport,tramstop
N30694959;Allee der Kosmonauten/Rhinstraße;13.5196399;52.5254432;transport,tramstop
N30694960;Meeraner Straße;13.5192685;52.5294311;transport,tramstop
N30694967;Landsberger Allee/Rhinstraße;13.5167808;52.5362433;transport,tramstop
N30694968;Rhinstraße/Plauener Straße;13.5146099;52.5390040;transport,tramstop
N30695361;Evangelisches Krankenhaus Königin Elisabeth Herzberge;13.5084195;52.5254615;transport,tramstop
N30695385;Roederplatz;13.4784194;52.5266198;transport,tramstop
N30695390;Landsberger Allee/Karl-Lade-Straße;13.4626650;52.5291966;transport,tramstop
N30695393;Möllendorffstraße/Storkower Straße;13.4795469;52.5233310;transport,tramstop
N30731481;Spandauer Straße/Marienkirche;13.4042441;52.5204243;transport,tramstop
N30731497;U Alexanderplatz;13.4147332;52.5221645;transport,tramstop
N30731498;Mollstraße/Otto-Braun-Straße;13.4204682;52.5249909;transport,tramstop
N30731507;Mollstraße/Otto-Braun-Straße;13.4202755;52.5255473;transport,tramstop
N30731508;S+U Alexanderplatz/Gontardstraße;13.4115103;52.5208822;transport,tramstop
N30731700;U Oranienburger Tor;13.3873633;52.5258817;transport,tramstop
N30732016;U Rosa-Luxemburg-Platz;13.4108348;52.5285170;transport,tramstop
N30732068;Memhardstraße;13.4116514;52.5236711;transport,tramstop
N30732071;Mollstraße/Prenzlauer Allee;13.4165112;52.5278448;transport,tramstop
N30733475;Prenzlauer Allee/Metzer Straße;13.4195316;52.5312158;transport,tramstop
N30733478;Knaackstraße;13.4208487;52.5334285;transport,tramstop
N30733479;Marienburger Straße;13.4225029;52.5362333;transport,tramstop
N30733487;Thomas-Mann-Straße;13.4416612;52.5435973;transport,tramstop
N30733493;Antonplatz;13.4517416;52.5484803;transport,tramstop
N30733501;Friesickestraße;13.4412466;52.5515316;transport,tramstop
N30733522;Tino-Schwierzina-Straße;13.4348544;52.5622499;transport,tramstop
N30733524;Am Wasserturm;13.4360827;52.5653510;transport,busstop
N30734427;Paul-Heyse-Straße;13.4447186;52.5291682;transport,tramstop
N30734435;Bersarinplatz;13.4522943;52.5196343;transport,tramstop
N30734503;Grünberger Straße/Warschauer Straße;13.4526090;52.5122359;transport,tramstop
N30736267;Kosanke-Siedlung;13.4847623;52.4971668;transport,tramstop
N30736270;Gustav-Holzmann-Straße;13.4906093;52.4931464;transport,tramstop
N30736271;Heizkraftwerk;13.4958685;52.4881374;transport,tramstop
N30736422;Treskowallee/Ehrlichstraße;13.5246938;52.4789138;transport,tramstop
N30736423;S Karlshorst/Wandlitzstraße;13.5250814;52.4800533;transport,tramstop
N30736427;S Karlshorst;13.5255656;52.4823628;transport,tramstop
N30736431;Treskowallee/Hochschule für Technik und Wirtschaft;13.5266059;52.4927681;transport,tramstop
N30736442;S Friedrichsfelde Ost;13.5190209;52.5132315;transport,tramstop
N30739613;S Marienfelde;13.3746844;52.4242122;transport,station
N30740233;S Buckower Chaussee;13.3828886;52.4103447;transport,station
N30770321;Kiefheider Weg;13.2390957;52.6194252;transport,busstop
N30820629;Senftenberger Ring Ost;13.3622665;52.6042564;transport,busstop
N30822887;Schildow;13.3770570;52.6355634;poi,village
N30822888;Blankenfelde;13.3884468;52.6186272;poi,suburb
N30840917;Seestraße/Beusselstraße;13.3271210;52.5386644;transport,busstop
N30868159;Gedenkstätte Plötzensee;13.3227163;52.5407543;tourist,memorial
N31034998;U Ullsteinstraße;13.3844566;52.4542319;transport,subway
N31034999;U Westphalweg;13.3857568;52.4462770;transport,subway
N31048718;U Hermannstraße;13.4314659;52.4672622;transport,subway
N31207786;U Wilmersdorfer Straße;13.3066037;52.5065311;transport,subway
N31207787;U Bismarckstraße;13.3052393;52.5115148;transport,subway
N31207789;U Richard-Wagner-Platz;13.3065880;52.5173870;transport,subway
N31222216;Friedrichshagen;13.6262724;52.4493804;poi,suburb
N31354405;Heinrich-Mann-Oberschule;13.4337314;52.4157053;transport,busstop
N31367880;Siedlereck;13.1427927;52.5559625;transport,busstop
N31397068;Wasserwerk Beelitzhof;13.1850074;52.4297585;transport,busstop
N31425395;Fercher Straße;13.2335102;52.4232149;transport,busstop
N31451386;Zehlendorf;13.2589298;52.4343217;poi,suburb
N31491245;Rahnsdorf Waldschänke;13.6867556;52.4418300;transport,busstop
N31492302;Rübezahl;13.6292634;52.4239824;transport,busstop
N31492303;Müggelseeperle;13.6411065;52.4215924;transport,busstop
N31493178;Neu Helgoland;13.6833482;52.4289316;transport,busstop
N31493192;Müggelwerderweg;13.6805509;52.4363258;transport,busstop
N31496622;Alt-Müggelheim;13.6661703;52.4099666;transport,busstop
N31524735;Parkstraße;13.5394706;52.4576241;transport,tramstop
N31532403;Hoppendorfer Straße;13.5703572;52.4737633;transport,busstop
N31729333;U Prinzenstraße;13.4050905;52.4984047;transport,subway
N31901450;Gatow;13.1801341;52.4856409;poi,suburb
N31901451;Dahlem;13.2810976;52.4573805;poi,suburb
N31901452;Friedenau;13.3296424;52.4720750;poi,suburb
N31901454;Steglitz;13.3222865;52.4572569;poi,suburb
N31928978;Kladow;13.1400517;52.4602925;poi,suburb
N32497495;Tschaikowskistraße;13.6384915;52.3714248;transport,busstop
N33210078;Moritzstraße;13.2006647;52.5383587;transport,busstop
N33223341;Hackbuschstraße/Straße 603;13.1510156;52.5442235;transport,busstop
N33236598;Staakener Feldstraße;13.1371989;52.5353482;transport,busstop
N33484097;Paulsternstraße/Gartenfelder Straße;13.2461609;52.5443395;transport,busstop
N33553106;Fachinger Straße;13.1325344;52.5405285;transport,busstop
N33784937;Tegelort;13.2295251;52.5722155;poi,hamlet
N33787111;Havelblick;13.2099542;52.6026216;transport,busstop
N33790061;Tegel;13.2790461;52.5873891;poi,suburb
N34654812;S Buckower Chaussee;13.3828703;52.4103131;transport,station
N34663472;S Priesterweg;13.3562837;52.4599172;transport,station
N34663477;S Priesterweg;13.3564760;52.4598868;transport,station
N34663482;S Priesterweg;13.3562177;52.4599134;transport,station
N34781673;Stresowplatz;13.2066893;52.5339630;transport,busstop
N34781734;S-Bahnhof Stresow;13.2091054;52.5326198;transport,busstop
N34782032;S-Bahnhof Stresow;13.2089575;52.5323711;transport,busstop
N34782033;S-Bahnhof Stresow;13.2087080;52.5324778;transport,busstop
N34968330;Klinikum Neukölln;13.4582099;52.4399276;transport,busstop
N35115775;Buckow;13.4289504;52.4186619;poi,suburb
N35215999;Am Kiesberg;13.5271035;52.4228640;transport,busstop
N35250221;Papenberge, Spandauer Landstraße;13.2015899;52.5970810;transport,busstop
N35300986;Deichgraf;13.3521465;52.5398463;food,pub
N35300987;Lindengarten;13.3501910;52.5394261;food,restaurant
N35302528;Grüne Oase;13.3452267;52.5485047;food,pub
N35528080;Coffee Star;13.3563426;52.5476798;food,cafe
N35528193;U Seestraße;13.3516304;52.5502459;transport,tramstop
N35966292;Paella;13.2839198;52.5068889;food,restaurant
N35966604;Media-Markt;13.3071890;52.5061453;shop,hifi
N35973391;Cancún;13.2829535;52.5103223;food,restaurant
N36310174;SchAtulle;13.3311071;52.5543232;food,restaurant
N38901942;U Halemweg;13.2864407;52.5365733;transport,subway
N38901944;U Siemensdamm;13.2727725;52.5367004;transport,subway
N38901945;U Jungfernheide;13.3007450;52.5304166;transport,subway
N38901946;U Mierendorffplatz;13.3046696;52.5263256;transport,subway
N38902377;U Rohrdamm;13.2626037;52.5369093;transport,subway
N38902430;U Paulsternstraße;13.2478023;52.5379106;transport,subway
N38902433;U Haselhorst;13.2329554;52.5386082;transport,subway
N38902443;U Altstadt Spandau;13.2055259;52.5389737;transport,subway
N38902451;U Rathaus Spandau;13.1999509;52.5354269;transport,subway
N47786602;S Westkreuz;13.2843853;52.5006849;transport,station
N106982118;Tamoil;13.5312546;52.5096831;transport,fuel
N106982123;McDonald's;13.5315300;52.5099118;food,fastfood
N107020135;U Frankfurter Tor;13.4540123;52.5158709;transport,subway
N107606908;U Rathaus Reinickendorf;13.3259254;52.5883733;transport,subway
N109817063;Rhinstraße/Gärtnerstraße;13.5111756;52.5462929;transport,busstop
N110124633;S Halensee;13.2905054;52.4959537;transport,station
N111644760;No Limit Shishabar;13.3209279;52.5655612;food,bar
N111810609;Getränke Hoffmann;13.2882031;52.4995966;shop,alcohol
N111810614;Fressnapf;13.2884110;52.4997351;shop,pet
N113639023;Hauptstraße/Rhinstraße;13.5051908;52.5487991;transport,tramstop
N115544715;Caffè Kamee;13.5306390;52.4296874;food,cafe
N115546494;Mensa Oase;13.5300404;52.4293965;food,restaurant
N122341782;Chris-Gueffroy-Allee;13.4723135;52.4609081;transport,busstop
N123139240;Adlergestell/Vetschauer Allee;13.6337860;52.3864124;transport,tramstop
N123139267;Lübbenauer Weg;13.6349375;52.3911239;transport,tramstop
N128376788;S Messe Nord/ICC;13.2830501;52.5072946;transport,station
N129255755;Glienicker Straße;13.5703600;52.4408436;transport,tramstop
N129618411;Edeka;13.3267829;52.4797635;shop,supermarket
N129648004;Lichterfelde;13.3138645;52.4372930;poi,suburb
N129652637;U Rudow;13.4980239;52.4156966;transport,busstop
N129730396;U Wutzkyallee;13.4750041;52.4232768;transport,subway
N129730418;U Lipschitzallee;13.4627234;52.4245831;transport,subway
N129730605;U Johannisthaler Chaussee;13.4535330;52.4290039;transport,subway
N129730610;U Britz-Süd;13.4482154;52.4374931;transport,subway
N129730678;U Südstern;13.4076671;52.4892983;transport,subway
N129730706;U Karl-Marx-Straße;13.4393397;52.4761411;transport,subway
N129875262;Neukölln;13.4353501;52.4811497;poi,suburb
N132084434;McPaper;13.2967922;52.4426277;shop,copyshop
N132092492;Köhlerstraße;13.2894251;52.4353784;transport,busstop
N132095890;Johanneskirchplatz;13.2935360;52.4369525;transport,busstop
N132096981;Baseler Straße;13.2951877;52.4376344;transport,busstop
N132115000;Drakestraße/Ringstraße;13.2995442;52.4403860;transport,busstop
N136721344;Pula-Grill;13.3206599;52.5701846;food,restaurant
N137483925;Paris-Moskau;13.3644784;52.5225899;food,restaurant
N137549003;Zum feuchten Grafen;13.3138632;52.5699596;food,pub
N137549008;Zum Krug;13.3158208;52.5708788;food,pub
N137549010;ChillOut Bar;13.3170085;52.5688285;food,pub
N137549024;Bären-Eck;13.3221149;52.5700374;food,pub
N138548568;Schönefeld, Waltersdorfer Chaussee;13.5173899;52.3976016;transport,busstop
N139339046;Freizeit Wittke;13.2927925;52.5824535;shop,diy
N139661679;Thoben;13.1474282;52.5413214;shop,bakery
N139667128;Heidekrug;13.1470060;52.5415191;food,restaurant
N139671037;Grenzeck;13.1421398;52.5342924;food,pub
N139689661;Heidebergplan;13.1473195;52.5412670;transport,busstop
N139695101;Lidl;13.1429724;52.5461580;shop,supermarket
N139983479;S Grunewald;13.2596523;52.4889758;transport,busstop
N140083405;Bahnhof Staaken;13.1421200;52.5370851;transport,busstop
N140274896;Gerd's Dorfkrug;13.3678085;52.5682636;food,pub
N140274901;Amende Klause;13.3688408;52.5684647;food,pub
N140274903;Potter's Inn;13.3303066;52.5754322;food,pub
N141801940;Berlin-Staaken;13.1405355;52.5378111;transport,station
N142062829;Wupperstraße;13.2727311;52.4096273;transport,busstop
N145749229;Hermsdorf;13.3110313;52.6183341;poi,suburb
N145752097;Lübars;13.3530197;52.6146467;poi,suburb
N145785609;Wittenau;13.3233195;52.5912366;poi,suburb
N146866102;Sandinostraße;13.4805355;52.5384568;transport,tramstop
N148099838;Bärlin;13.3275914;52.5645531;accommodation,hotel
N149607221;Konnopke’s Imbiß;13.4120618;52.5405912;food,fastfood
N149607241;Commerzbank;13.4117871;52.5415199;money,bank
N149607257;en passant;13.4129805;52.5442039;food,bar
N150543903;Stendaler Straße/Quedlinburger Straße;13.6043219;52.5389218;transport,tramstop
N150545069;Charlottenburg-Nord;13.2962663;52.5405253;poi,suburb
N150545071;Siemensstadt;13.2568934;52.5398082;poi,suburb
N150667269;The Tipperary;13.3566864;52.5431648;food,pub
N150677416;Cecilienstraße/Blumberger Damm;13.5657340;52.5295261;transport,busstop
N150677775;Cecilienstraße/Blumberger Damm;13.5657421;52.5284544;transport,busstop
N150983614;Strandlust ("Kaffekahn");13.6572240;52.3762307;food,restaurant
N150989193;Bier Stüb'l;13.3265108;52.5642761;food,pub
N150989271;Arnica-Apotheke;13.3279940;52.5645425;health,pharmacy
N150990860;Café Egal und Radlstation;13.3007288;52.5235968;food,pub
N151012783;Schlosspark Biesdorf;13.5624050;52.5119115;transport,busstop
N151012797;Schlosspark Biesdorf;13.5621985;52.5117688;transport,busstop
N151012874;Rapsweg/Unfallkrankenhaus;13.5641037;52.5192521;transport,busstop
N151012886;Rapsweg/Unfallkrankenhaus;13.5637469;52.5184915;transport,busstop
N151013210;Biesdorf-Süd;13.5606634;52.4985344;poi,hamlet
N151013231;Marzahn;13.5631420;52.5429481;poi,suburb
N151013576;Friedrichsfelde Ost;13.5308651;52.5205784;poi,hamlet
N151014537;Friedrichsfelde;13.5205456;52.5029358;poi,suburb
N151014935;Ahrensfelde;13.5719004;52.5770767;poi,town
N151015050;Norma;13.5403083;52.5265407;shop,supermarket
N156850034;Teufelsberg;13.2424443;52.4976384;poi,peak
N159561548;Reinickendorf;13.3455963;52.5711856;poi,suburb
N159563028;Borsigwalde;13.3022741;52.5840624;poi,suburb
N159750674;Schönholz;13.3794128;52.5736763;poi,hamlet
N159769182;Wedding;13.3419700;52.5501230;poi,suburb
N159770854;Märkisches Viertel;13.3565324;52.5993123;poi,suburb
N159775126;Konradshöhe;13.2231978;52.5856837;poi,suburb
N160281417;Saatwinkel;13.2508927;52.5625002;poi,hamlet
N160330614;Tiergarten;13.3572597;52.5097776;poi,suburb
N160332579;Hansaviertel;13.3418725;52.5191234;poi,hamlet
N161548665;Falkenhagener Feld;13.1668941;52.5524034;poi,suburb
N161557666;Haselhorst;13.2311560;52.5413233;poi,suburb
N161585770;Wilhelmsruh;13.3622059;52.5880115;poi,suburb
N161588149;Schulzendorf;13.2583801;52.6078024;poi,hamlet
N161603501;Buch;13.4999292;52.6366724;poi,suburb
N161618720;Altglienicke;13.5426461;52.4118382;poi,suburb
N161876290;Rosenthal;13.3755194;52.5983189;poi,suburb
N161879644;Niederschönhausen;13.4013970;52.5858062;poi,suburb
N162010487;Gropiusstadt;13.4661830;52.4249493;poi,suburb
N162012321;Mitte;13.4023757;52.5176896;poi,suburb
N162081850;Philharmonie;13.3686216;52.5102281;transport,busstop
N162435116;Mehringbrücke;13.3890164;52.4984140;transport,busstop
N163830590;Gesundbrunnen;13.3848460;52.5509201;poi,suburb
N163852973;Prenzlauer Berg;13.4285652;52.5398466;poi,suburb
N163861801;Französisch Buchholz;13.4281104;52.6105131;poi,suburb
N163871381;Wilhelmstadt;13.1914518;52.5139207;poi,suburb
N163886348;Britz;13.4423401;52.4483324;poi,suburb
N164030102;Schönow;13.2707131;52.4108270;poi,suburb
N165735068;Gosenberge;13.6953839;52.3829800;poi,peak
N165736690;Mörderberg;13.4611864;52.5847049;transport,busstop
N166966908;Postbank;13.4354310;52.5002019;money,bank
N167013475;Jockel;13.4389954;52.4916944;food,biergarten
N167048488;Nestwärme Kita;13.4333992;52.5015358;education,nursery
N169494133;Navarraplatz;13.4293059;52.6082424;transport,tramstop
N170903356;Chalet Suisse;13.2691890;52.4619020;food,restaurant
N171067396;Postbank Finanzcenter;13.3822676;52.5314717;money,bank
N171073634;Der Neue Weltempfänger;13.4006900;52.5365840;food,restaurant
N172836943;Real;13.3512701;52.5526665;shop,supermarket
N173985100;HAU 2 (Hebbel am Ufer);13.3862714;52.4990938;tourist,theatre
N174817813;U Yorckstraße;13.3706891;52.4929715;transport,subway
N174857525;An der Buche;13.2836530;52.6306838;transport,busstop
N175149811;Hainbuchenstraße;13.2740846;52.6340456;transport,busstop
N175681796;Maestral;13.3257329;52.5893726;food,restaurant
N175685776;Thai Restaurant;13.3329198;52.5971448;food,restaurant
N175685782;Märkische Bierstuben;13.3330486;52.5965582;food,pub
N175685784;Netto Marken-Discount;13.3335139;52.5958262;shop,supermarket
N175706216;sun;13.3319568;52.5987115;transport,fuel
N177484284;Calimero;13.3627545;52.5674603;food,restaurant
N79408448;Friedrich-Wolf-Straße;13.5752688;52.4242962;transport,tramstop
N79418658;Edeka;13.3085471;52.5724174;shop,supermarket
N79422426;Nahkauf;13.3124756;52.5716761;shop,supermarket
N79428988;NP;13.3169308;52.5664033;shop,supermarket
N79430189;Getränke Hoffmann;13.3217921;52.5650645;shop,alcohol
N79438509;Edeka;13.3211440;52.5704861;shop,supermarket
N79454844;Athena-Grill;13.3277706;52.4800056;food,restaurant
N79455376;Deutsche Post;13.3272400;52.4800186;amenity,postoffice
N79593591;Otisstraße/Quäkerstraße;13.3056817;52.5753443;transport,busstop
N79594504;Otisstraße/Wittestraße;13.3073332;52.5769229;transport,busstop
N79595616;Auguste-Viktoria-Allee/Quäkerstraße;13.3088580;52.5720694;transport,busstop
N79597771;Uranusweg;13.3170693;52.5666141;transport,busstop
N79599789;Eichborndamm/Antonienstraße;13.3115873;52.5715952;transport,busstop
N79603436;Diamant Apotheke;13.3287743;52.5633045;health,pharmacy
N79606682;Apotheke am Markt Reinickendorf;13.3170343;52.5668918;health,pharmacy
N79615774;Cinestar;13.2860048;52.5839192;tourist,cinema
N79624638;Barlach Apotheke;13.3213944;52.5701291;health,pharmacy
N79675952;Albert's;13.3288490;52.5638200;food,bar
N79684879;Marien-Apotheke;13.3206830;52.4851086;health,pharmacy
N79688159;Park-Apotheke;13.3289844;52.4815398;health,pharmacy
N79769672;Pizzaria Tamara;13.3098188;52.5701303;food,restaurant
N79808386;Block House;13.2707837;52.5096640;food,restaurant
N79808389;Die Wühlmäuse;13.2707514;52.5088651;tourist,theatre
N79836147;Ibis Hotel Berlin City West;13.3165059;52.4890701;accommodation,hotel
N81362508;Café & Reisebüro - Eishandwerk;13.2708507;52.5089075;food,cafe
N81362518;JOE'S Restaurant & Wirtshaus;13.2709108;52.5098741;food,restaurant
N81362602;Kranich-Apotheke;13.2716196;52.5104890;health,pharmacy
N81362605;Lindenwirtin;13.2716781;52.5106197;food,restaurant
N81462758;Berlin-Spandau;13.1955887;52.5348012;transport,station
N83502731;Jet;13.5500809;52.5519257;transport,fuel
N84644753;Abschnitt 53 Kreuzberg-Nord;13.3905699;52.5049589;amenity,police
N84644762;Hotel Angleterre;13.3910673;52.5047735;accommodation,hotel
N84644772;Ibis Budget;13.3845953;52.5048415;accommodation,hotel
N84644779;Suite Novotel Berlin City Potsdamer Platz;13.3833431;52.5045858;accommodation,hotel
N84644780;Ristorante Marinelli;13.3827465;52.5044686;food,restaurant
N84644791;Balzac Coffee;13.3770044;52.5082693;food,cafe
N84646591;Subway;13.3830284;52.5308636;food,fastfood
N84904956;Eichborneck;13.3134197;52.5712131;food,pub
N85897703;Adersleber Weg;13.5604679;52.5380642;transport,tramstop
N86001788;The Westin Grand Berlin;13.3886042;52.5158768;accommodation,hotel
N86001790;Subway;13.3899247;52.5158107;food,fastfood
N86001794;Bocca di Bacco;13.3889505;52.5151154;food,restaurant
N86001798;Restaurant Borchardt;13.3903882;52.5150034;food,restaurant
N86001799;Regent Berlin;13.3907432;52.5152925;accommodation,hotel
N86001800;Fischer's Fritz;13.3907724;52.5150373;food,restaurant
N86001813;Aigner;13.3909281;52.5146890;food,restaurant
N86001816;Möhring;13.3909914;52.5141056;food,restaurant
N86001825;Lutter & Wegner;13.3911782;52.5132123;food,restaurant
N86001826;Maredo;13.3912567;52.5126889;food,restaurant
N86001831;Hotel Gendarm;13.3914622;52.5115420;accommodation,hotel
N86001833;Malatesta;13.3913074;52.5124049;food,restaurant
N86001835;Mark Brandenburg;13.3919416;52.5120330;food,restaurant
N86001837;Fellini;13.3922763;52.5120539;food,restaurant
N86001840;Hilton Berlin;13.3925824;52.5120851;accommodation,hotel
N86001846;Shan's Bistro;13.3935532;52.5130816;food,restaurant
N86001863;Botschaft des Königreichs Marokko;13.3979038;52.5130621;poi,embassy
N86005430;Newton Bar;13.3912298;52.5129305;food,bar
N86029990;Salvador-Allende-Brücke;13.5938688;52.4480169;transport,busstop
N86030014;Salvador-Allende-Brücke;13.5936533;52.4481159;transport,busstop
N87018549;Platz der Vereinten Nationen;13.4334573;52.5232300;transport,tramstop
N87018550;Büschingstraße;13.4274974;52.5231174;transport,tramstop
N87036259;Balzac Coffee;13.3831456;52.5307598;food,cafe
N87036261;Nordlandapotheke;13.3841248;52.5306975;health,pharmacy
N87040343;Starbucks;13.3900182;52.5110724;food,cafe
N87040348;Einstein Kaffee;13.3894708;52.5113571;food,cafe
N87040391;Maximilian's;13.3891811;52.5113441;food,restaurant
N87040394;Izumi Sushi Bar;13.3887116;52.5112920;food,restaurant
N87040399;DKB;13.3887982;52.5110500;money,bank
N87040402;Friedrichstadt Apotheke;13.3868843;52.5117692;health,pharmacy
N87040412;Botschaft der Tschechischen Republik in Berlin;13.3843160;52.5114393;poi,embassy
N87040415;Commerzbank;13.3900196;52.5113556;money,bank
N89274635;Deutsche Bank;13.4158077;52.5232498;money,bank
N89274641;Escados;13.4118534;52.5242900;food,restaurant
N89274695;Las Olas;13.4115220;52.5243348;food,restaurant
N89274696;Braufactum;13.4109696;52.5235991;food,pub
N89274697;Panorama Apotheke;13.4096557;52.5218379;health,pharmacy
N89274703;Käse König;13.4092065;52.5214304;food,restaurant
N89274704;Commerzbank;13.4100262;52.5216534;money,bank
N89274833;Carambar;13.4122196;52.5203514;food,restaurant
N89274854;Linosa;13.4118538;52.5201827;food,restaurant
N89274884;Dunkin' Donuts;13.4114310;52.5200950;food,cafe
N89274887;Deutsche Post;13.4115537;52.5196982;amenity,postoffice
N89274888;Apotheke in den Rathauspassagen;13.4111159;52.5198340;health,pharmacy
N89274938;Eiscafe Lampe;13.4103508;52.5195321;food,cafe
N89275075;Rathaus Cafe;13.4071626;52.5180123;food,restaurant
N89275135;Mutter Hoppe;13.4063126;52.5177288;food,restaurant
N89275143;Jülchen Hoppe;13.4050245;52.5172681;food,restaurant
N89275152;Berliner Stadtbibliothek;13.4041356;52.5155636;amenity,library
N89275182;Fischerinsel-Apotheke;13.4053524;52.5133809;health,pharmacy
N89275203;Shezan;13.4081288;52.5121460;food,restaurant
N89304553;Australische Botschaft;13.4093648;52.5122655;poi,embassy
N89304563;Berliner Volksbank;13.4087569;52.5117367;money,bank
N89304572;Botschaft von Zypern;13.4085654;52.5117536;poi,embassy
N89312686;McDonald's;13.4078133;52.5219315;food,fastfood
N89312691;Burger King;13.4127200;52.5226551;food,fastfood
N89957618;Sportler-Eck;13.3025780;52.5840688;food,pub
N89960246;Trattoria Monticchiello;13.2901148;52.5827216;food,restaurant
N91611104;S Blankenburg;13.4436339;52.5914903;transport,station
N91711807;U Schönhauser Allee;13.4138240;52.5496958;transport,station
N91711812;S+U Schönhauser Allee;13.4138521;52.5495502;transport,tramstop
N91711823;Milastraße;13.4125522;52.5449538;transport,tramstop
N92141859;Moßkopfring;13.6474588;52.3404601;transport,busstop
N92332110;Kienhorststraße;13.3131090;52.5750263;transport,busstop
N92333037;Kienhorststraße;13.3144357;52.5744835;transport,busstop
N92627145;Hugenottenplatz;13.4196600;52.6060651;transport,tramstop
N92627148;Arnouxstraße;13.4242950;52.6072487;transport,tramstop
N92627167;Blankenfelder Straße;13.4314871;52.6017321;transport,tramstop
N94483147;Lübbenauer Weg;13.6350296;52.3912483;transport,busstop
N94487924;Altglienicke Kirche;13.5394412;52.4218794;transport,busstop
N94487938;Altglienicker Brücke;13.5434826;52.4243267;transport,busstop
N94941339;Alte Försterei;13.5631525;52.4565253;transport,tramstop
N94941344;Spindlersfelder Straße;13.5586012;52.4559160;transport,tramstop
N94941350;Nixenstraße;13.5501064;52.4566234;transport,tramstop
N94941359;Freizeit- und Erholungszentrum;13.5436031;52.4575779;transport,tramstop
N94942335;Bahnhofstraße/Lindenstraße;13.5710431;52.4516146;transport,tramstop
N94951410;Pablo-Neruda-Straße;13.5862663;52.4409891;transport,tramstop
N94951419;Schloßplatz Köpenick;13.5753837;52.4443409;transport,tramstop
N94963733;S Spindlersfeld;13.5620717;52.4453397;transport,tramstop
N95041105;Mr. Wash;13.2409824;52.5383302;transport,fuel
N95746172;S+U-Bahnhof Wittenau;13.3361517;52.5957492;transport,busstop
N95911874;Jenaer Straße;13.6143400;52.5321785;transport,tramstop
N95914718;Alte Hellersdorfer Straße/Zossener Straße;13.5927653;52.5447348;transport,tramstop
N95948746;Krankenhaus Köpenick/Südseite;13.5920763;52.4388396;transport,tramstop
N96535655;Allee der Kosmonauten/Poelchaustraße;13.5526731;52.5339076;transport,tramstop
N96535658;Boschpoler Straße;13.5490530;52.5288193;transport,tramstop
N96536154;S Springpfuhl;13.5364800;52.5256909;transport,tramstop
N96536918;S+U Lichtenberg/Siegfriedstraße;13.4977547;52.5123603;transport,tramstop
N97879674;Freiwillige Feuerwehr Buch (2710);13.5015237;52.6378173;amenity,firestation
N98862012;Alt-Marzahn;13.5636472;52.5418690;transport,tramstop
N98865506;Bürgerpark Marzahn;13.5611175;52.5502024;transport,tramstop
N98867660;Ahrensfelde/Stadtgrenze;13.5748224;52.5727427;transport,tramstop
N98871740;Hohenschönhauser Straße/Weißenseer Weg;13.4721263;52.5357239;transport,tramstop
N98878581;S Landsberger Allee;13.4571206;52.5287665;transport,tramstop
N98878847;S Greifswalder Straße;13.4382904;52.5407234;transport,tramstop
N98883766;Stadion Buschallee/Suermondtstraße;13.4858250;52.5522995;transport,tramstop
N98884328;Gehrenseestraße;13.5094994;52.5508672;transport,tramstop
N98896966;Berufsfeuerwache Wilmersdorf (3400);13.3206793;52.4874763;amenity,firestation
N100062685;Am Tierpark/Alfred-Kowalke-Straße;13.5202027;52.5047135;transport,tramstop
N101002874;Bachhuber;13.3261077;52.4911032;shop,butcher
N101003688;Edeka;13.3228827;52.4913971;shop,supermarket
N101186634;UCI Kinowelt Am Eastgate;13.5420275;52.5417516;tourist,cinema
N101338586;Ottomar-Geschke-Straße;13.5593347;52.4419029;transport,busstop
N101387833;Total;13.4680868;52.5475627;transport,fuel
N102247294;Mommsen-Eck;13.3081857;52.5034033;food,restaurant
N103923024;Gounodstraße;13.4671050;52.5484859;transport,tramstop
N50808874;Rhinstraße/Gärtnerstraße;13.5098241;52.5457177;transport,tramstop
N51595499;Rabensteiner Straße;13.5791042;52.5659497;transport,busstop
N51994959;Zentralfriedhof;13.5076501;52.5145532;transport,busstop
N52684988;U Hönow;13.6336218;52.5382584;transport,subway
N52692783;U Cottbusser Platz;13.5971793;52.5339777;transport,subway
N52776952;Simon-Bolivar-Straße;13.4844148;52.5399029;transport,tramstop
N53274722;U Kaulsdorf-Nord;13.5890346;52.5211222;transport,subway
N53274725;U Kienberg (Gärten der Welt);13.5906901;52.5285704;transport,subway
N55042155;Reinhardsbrunner Straße;13.5000697;52.5312095;transport,busstop
N55189254;U Samariterstraße;13.4638612;52.5148582;transport,subway
N55189765;U Schillingstraße;13.4212287;52.5206939;transport,subway
N55198449;Alt-Friedrichsfelde/Gensinger Straße;13.5305055;52.5095784;transport,busstop
N55198474;Gensinger Straße Nord;13.5299540;52.5135096;transport,busstop
N58467591;Park Plaza Wallstreet;13.4078027;52.5114646;accommodation,hotel
N58489979;Netto Marken-Discount;13.4073729;52.5098189;shop,supermarket
N58489996;Lila Bäcker;13.4082967;52.5103600;shop,bakery
N59368911;U Borsigwerke;13.2908505;52.5815922;transport,subway
N59368920;U Alt-Tegel;13.2836440;52.5896752;transport,subway
N59852353;Hirtschulzstraße;13.6091109;52.5162326;transport,busstop
N59852492;Gülzower Straße;13.5953807;52.5184298;transport,busstop
N59979916;Staaken;13.1433666;52.5322705;poi,suburb
N60105926;DERAG Livinghotel Großer Kurfürst;13.4087883;52.5122494;accommodation,hotel
N60105927;art’otel Berlin Mitte;13.4103351;52.5125444;accommodation,hotel
N60105928;DERAG Livinghotel Berlin-Mitte;13.4082495;52.5120824;accommodation,hotel
N60237649;East Side Hotel;13.4455318;52.5034124;accommodation,hotel
N60240143;Radisson Blu Hotel Berlin;13.4028297;52.5195175;accommodation,hotel
N60240155;Novotel Berlin Mitte;13.4051935;52.5131672;accommodation,hotel
N60436247;HEM;13.3065236;52.5775941;transport,fuel
N60436516;Aral;13.3297289;52.5633411;transport,fuel
N60480748;S Olympiastadion;13.2436148;52.5113152;transport,station
N60775321;Eishockeyshop Böckelmann;13.4816226;52.5386233;shop,motorcycle
N60775323;Reichenberger Apotheke;13.4866016;52.5407412;health,pharmacy
N60848447;Castello-Apotheke;13.4696536;52.5318353;health,pharmacy
N60848455;Sparkasse;13.4710823;52.5303395;money,bank
N60848456;Anton-Saefkow-Bibliothek;13.4708382;52.5307772;amenity,library
N60852928;Rosen Apotheke;13.4686679;52.5274462;health,pharmacy
N60852951;Berliner Volksbank;13.4654393;52.5245841;money,bank
N60959479;Sprint;13.3133258;52.4794844;transport,fuel
N61818198;Aral;13.3091456;52.4924086;transport,fuel
N61885789;Heiligensee;13.2295789;52.6122549;poi,suburb
N63253621;Sabor con Tradicón;13.2948886;52.5016737;food,restaurant
N63253646;Haus der 100 Biere;13.2969979;52.4983826;food,restaurant
N63253652;Ach!NikO!Ach!;13.2982643;52.4985699;food,restaurant
N63253660;D.31 Claudia & Eduard;13.2976442;52.5009791;food,restaurant
N63253672;Deniz Grill 2;13.2961522;52.4993613;food,fastfood
N64707597;Aral;13.4218760;52.5138544;transport,fuel
N64901636;Keltensteig;13.5457912;52.4188653;transport,busstop
N64901639;Preußenstraße;13.5533206;52.4175976;transport,busstop
N66917080;Berliner Volksbank;13.3879409;52.5245537;money,bank
N66917094;Friedrichstadt-Palast;13.3888786;52.5239216;tourist,theatre
N66917098;Quatsch Comedy Club;13.3886211;52.5236239;tourist,theatre
N66917101;Hotel Riverside;13.3882776;52.5226997;accommodation,hotel
N66917107;Innside Meliá Berlin;13.3884680;52.5213429;accommodation,hotel
N66917115;Kabarett-Theater Distel;13.3885051;52.5206669;tourist,theatre
N66917188;Admiralspalast;13.3889021;52.5207714;tourist,theatre
N66917193;nH Hotel Berlin Friedrichstraße;13.3891410;52.5196994;accommodation,hotel
N66917199;Starbucks;13.3887381;52.5194029;food,cafe
N66917205;Maritim proArte Hotel Berlin;13.3874995;52.5182281;accommodation,hotel
N66917229;Starbucks;13.3797873;52.5167271;food,cafe
N68363380;Days Inn Berlin City South;13.4257380;52.4874054;accommodation,hotel
N68363395;Aral Tankstelle;13.4497838;52.4971705;transport,fuel
N68381538;1. Gemeinschaftsschule;13.4336721;52.4876192;education,school
N68437791;Margareten-Apotheke;13.4505704;52.4893898;health,pharmacy
N69226035;Leipziger Apotheke;13.3959459;52.5105088;health,pharmacy
N69226060;Bären-Apotheke;13.3900490;52.5106590;health,pharmacy
N69226068;dm Drogeriemarkt;13.3896433;52.5104575;shop,convenience
N69226073;Sixt;13.3894102;52.5104026;transport,rentalcar
N69226077;NH Berlin Mitte;13.3889847;52.5105304;accommodation,hotel
N69226092;Grand Hyatt Berlin;13.3724841;52.5081971;accommodation,hotel
N69226202;Starbucks;13.3737316;52.5079310;food,cafe
N73690770;Air in Berlin Hotel;13.3425143;52.5041100;accommodation,hotel
N73690778;City Ansbach;13.3424588;52.5042850;accommodation,hotel
N73690786;Hotel Ambassador;13.3444919;52.5032294;accommodation,hotel
N73696610;Gedenkstätte Deutscher Widerstand;13.3629858;52.5076051;tourist,museum
N73696619;Staatsbibliothek zu Berlin;13.3711312;52.5074304;amenity,library
N73698849;Zepernicker Straße;13.5162949;52.6417304;transport,busstop
N75416296;Mönchsheimer Straße;13.6987319;52.4386232;transport,busstop
N75645699;Starbucks;13.3764297;52.5105871;food,cafe
N76474606;U Eisenacher Straße;13.3501694;52.4895529;transport,subway
N76474858;Shell Tankstelle;13.3313772;52.4929806;transport,fuel
N76506296;Thüringer Apotheke;13.3265847;52.4797649;health,pharmacy
N76507297;Preußen-Apotheke;13.3190694;52.4815485;health,pharmacy
N76508970;Commerzbank;13.3202393;52.4859910;money,bank
N76519017;Magdalenen-Apotheke;13.3251109;52.4863388;health,pharmacy
N76519952;Bundes-Apotheke;13.3314064;52.4865543;health,pharmacy
N76596388;Mühlenberg-Apotheke;13.4423197;52.5431994;health,pharmacy
N77561798;Simran;13.2851314;52.6622275;food,restaurant
N77561803;Nikopolis;13.2851607;52.6625311;food,restaurant
N77575733;Märchenhaus;13.2857739;52.6621305;food,restaurant
N77730695;Bauspielplatz;13.2828768;52.5428415;amenity,playground
N77750297;Hotel Larat;13.3296063;52.5693849;accommodation,hotel
N77788067;Dorint Airport Hotel - Berlin Tegel;13.3309459;52.5637241;accommodation,hotel
N78165700;Frohnau;13.2878663;52.6323917;poi,suburb
N78244254;Apotheke Axel Springer Passage;13.3947921;52.5071047;health,pharmacy
N78252160;Kaffee Mitte;13.3988477;52.5234692;food,cafe
N78252235;Münz-Apotheke;13.4088372;52.5240558;health,pharmacy
N78438027;Dalmacija;13.3082697;52.5725190;food,restaurant
N78447148;ZobelKlix;13.3101301;52.5698075;food,pub
N78448491;Korfu Jamas;13.3124707;52.5697324;food,restaurant
N78467656;Schlemmerküche;13.3073438;52.5770943;food,restaurant
N78522462;S Pichelsberg;13.2277246;52.5100318;transport,station
N186054004;Dorfkrug;13.3048085;52.5726395;food,pub
N187648557;Esso;13.3358283;52.5646652;transport,fuel
N193661797;U Friedrichsfelde;13.5128387;52.5061644;transport,subway
N194497030;Bürgerablage;13.2073708;52.5842422;transport,busstop
N196758117;U Senefelderplatz;13.4128740;52.5328293;transport,subway
N197335843;U Strausberger Platz;13.4298620;52.5183411;transport,busstop
N199398771;Müggelbergallee;13.5865384;52.4184793;transport,busstop
N201922027;Aral;13.5362627;52.5320023;transport,fuel
N203469159;Apotheke am Springpfuhl;13.5425973;52.5268708;health,pharmacy
N203469194;Poseidon-Apotheke;13.5421939;52.5276071;health,pharmacy
N203474469;Skarabäus-Apotheke;13.5558118;52.5204665;health,pharmacy
N203557001;Stadtteilbibliothek Erich Weinert;13.5387150;52.5281578;amenity,library
N203561614;Sparkasse;13.5383271;52.5276869;money,bank
N203590026;U Haselhorst;13.2315116;52.5390218;transport,busstop
N203592976;Zur kleinen Remise;13.5553974;52.5189237;food,restaurant
N203596116;Herkules I;13.5556504;52.5202400;food,restaurant
N205064297;Preysingstraße;13.3645202;52.4273331;transport,busstop
N205064299;Agip;13.3649375;52.4273627;transport,fuel
N205066401;Dicke Marie;13.2649888;52.5935492;tourist,attraction
N205317227;Biertempel 2;13.3767183;52.4800762;food,restaurant
N205497468;Tomasa Landhaus im Schollenkrug;13.3030043;52.6006677;food,restaurant
N206102770;Polizei Abschnitt 46;13.3475906;52.4276915;amenity,police
N206143935;FU Berlin GeoCampus;13.3580527;52.4269939;education,university
N206188815;Seeweg;13.5338729;52.3946806;transport,busstop
N208510718;Kastanienwäldchen;13.3644914;52.5640793;food,pub
N213106623;Sparkasse;13.4411888;52.5422209;money,bank
N213106681;Sparkasse;13.4336031;52.5363227;money,bank
N213108224;Sparkasse;13.4144713;52.5208174;money,bank
N213112439;Sparkasse;13.4019634;52.5234764;money,bank
N213119564;Sparkasse;13.5630209;52.5419619;money,bank
N213209586;Prerower Platz;13.5040518;52.5629680;transport,busstop
N213209907;Prerower Platz;13.5063478;52.5635598;transport,busstop
N213227866;Scholzplatz;13.2280504;52.5067239;transport,busstop
N213227885;Scholzplatz;13.2278306;52.5068763;transport,busstop
N223676384;Wiesenwinkel;13.3808678;52.5945415;transport,tramstop
N223826507;Grüntaler Straße;13.3909979;52.5553310;transport,tramstop
N229948256;Sophiensæle;13.4011409;52.5258112;tourist,theatre
N231614822;Calauer Straße;13.3508179;52.6038775;transport,busstop
N234808146;U Möckernbrücke;13.3833963;52.4991000;transport,subway
N237167870;Königin-Luise-Platz/Botanischer Garten;13.3039539;52.4589868;transport,busstop
N237838613;Rückert-Gymnasium;13.3384592;52.4799688;education,school
N239659091;Sparkasse;13.5250469;52.4817888;money,bank
N239661671;Sparkasse;13.5209784;52.4609893;money,bank
N239694634;Berliner Volksbank;13.5213312;52.4973629;money,bank
N240074090;Woltersdorf;13.7561557;52.4495394;poi,village
N240109189;Berlin;13.3888599;52.5170365;poi,city
N240701645;Schmitt-Geschenke / Der kleine Luxus im Tegel.Center;13.2860010;52.5895552;shop,gift
N241455542;Sun Wah;13.2860719;52.5898566;food,restaurant
N241456896;Ollenhauerstraße/Lindauer Allee;13.3324649;52.5760245;transport,busstop
N241457063;Rotbuchenweg;13.3205020;52.5834050;transport,busstop
N249358913;Miraustraße;13.3096501;52.5840935;transport,busstop
N249390126;S Tegel;13.2884033;52.5884912;transport,busstop
N249675570;Netto Marken-Discount;13.5486135;52.5439135;shop,supermarket
N250067344;Akemi;13.4212359;52.5376571;food,restaurant
N250068256;Solid Earth;13.4201129;52.5362535;shop,copyshop
N250195921;Alte Roland-Apotheke;13.3501221;52.5264625;health,pharmacy
N250532092;Titusweg;13.2916715;52.5956550;transport,busstop
N250532094;Hatzfeldallee;13.2915949;52.5929669;transport,busstop
N250532095;Hatzfeldallee;13.2914811;52.5927865;transport,busstop
N250588095;Yard;13.4200871;52.5355911;food,pub
N250588809;Anjoy;13.4204770;52.5361742;food,restaurant
N251046156;Mollwitzstraße;13.2861445;52.5222009;transport,busstop
N251328732;Gedenkstele Luisenstädtische Kirche;13.4071783;52.5090134;tourist,memorial
N251335826;Seepalast;13.6872536;52.4417119;food,restaurant
N251340008;Edeka;13.7147472;52.4315072;shop,supermarket
N251559871;Intimes;13.4582297;52.5129521;tourist,cinema
N251595302;Penny;13.3706441;52.5650380;shop,supermarket
N251737915;Virchow Apotheke;13.3498263;52.5497300;health,pharmacy
N252204472;Sportanlage Schönagelstraße;13.5717240;52.5495479;sport,soccer
N252280390;S Rahnsdorf;13.6929464;52.4515260;transport,tramstop
N252280408;Woltersdorf, Goethestraße;13.7263905;52.4555753;transport,tramstop
N252280409;Woltersdorf, Eichendamm;13.7309650;52.4557019;transport,tramstop
N252280413;Woltersdorf, Lerchenplatz;13.7346091;52.4551497;transport,tramstop
N252280437;Woltersdorf, Blumenstraße;13.7594534;52.4494503;transport,tramstop
N252280440;Woltersdorf, Krankenhaus;13.7615170;52.4473014;transport,tramstop
N252492499;Fontanestraße;13.1091790;52.3932276;transport,tramstop
N252550890;The Story of Berlin;13.3235264;52.5011348;tourist,museum
N252550951;Three Little Pigs;13.3860243;52.5032550;accommodation,hostel
N252656011;Shell Tankstelle;13.3012414;52.5158740;transport,fuel
N253041287;Kanonenberge;13.6136561;52.4212629;poi,peak
N253168445;Freudstraße/Goldkäferweg;13.1488072;52.5567641;transport,busstop
N253168485;Freudstraße;13.1494664;52.5545554;transport,busstop
N253168545;Hochhausweg;13.1527397;52.5501115;transport,busstop
N253256490;Woelckpromenade;13.4524256;52.5519403;transport,busstop
N253256553;NETTO;13.4550894;52.5515059;shop,supermarket
N253415005;Fichtenau;13.7008048;52.4602250;poi,hamlet
N253616491;Lidl;13.4691219;52.5077385;shop,supermarket
N253616592;Kauf Markt;13.4626981;52.5110467;shop,convenience
N253616655;Edeka;13.4709585;52.5100610;shop,supermarket
N253618460;Berufsfeuerwache Friedrichshain (1200) Freiwillige Feuerwehr Friedrichshain;13.4445489;52.5118289;amenity,firestation
N253625297;Sparkasse;13.4677571;52.5072788;money,bank
N253775620;Strandbad Wannsee;13.1785108;52.4383129;sport,swimming
N253776551;Hotel und Rasthof Grunewald;13.1908097;52.4342237;accommodation,hotel
N253845582;U Bundestag;13.3730685;52.5201897;transport,subway
N253846340;U Brandenburger Tor;13.3811634;52.5166640;transport,subway
N253891060;Kreuzburger;13.4156170;52.5438689;food,fastfood
N253943340;S Friedrichshagen;13.6266712;52.4576956;transport,tramstop
N253943345;Brösener Straße;13.6350780;52.4591543;transport,tramstop
N253943361;Schöneiche, Waldstraße;13.6816293;52.4676099;transport,tramstop
N253943504;Fürstenwalder Damm/Müggelseedamm;13.6615340;52.4498638;transport,tramstop
N253943512;Licht- und Luftbad Müggelsee;13.6711513;52.4476458;transport,tramstop
N253943514;Strandbad Müggelsee;13.6776394;52.4457181;transport,tramstop
N253943516;Rahnsdorf/Waldschänke;13.6850380;52.4435317;transport,tramstop
N253999302;Back Factory;13.3561798;52.4862765;shop,bakery
N253999353;DoubleEye;13.3540667;52.4880083;food,cafe
N253999816;Öz-Gida;13.3570728;52.4873144;shop,supermarket
N254003168;Yogi-Haus;13.3506678;52.4862780;food,restaurant
N254087661;Berlin-Charlottenburg;13.3026447;52.5043157;transport,station
N254096277;U Viktoria-Luise-Platz;13.3436521;52.4962693;transport,subway
N254100382;Fürstenwalder Damm;13.6521666;52.4524584;transport,tramstop
N254125468;Getränke Hoffmann;13.3223598;52.4954461;shop,alcohol
N254307048;Wotan Apotheke;13.3218144;52.5068916;health,pharmacy
N254307080;Reinhard’s;13.3271435;52.5031309;food,restaurant
N254307082;Kempinski Grill;13.3272963;52.5033238;food,restaurant
N254307091;Sofitel Berlin Kurfürstendamm;13.3317935;52.5025050;accommodation,hotel
N254307092;Le Faubourg;13.3319592;52.5027118;food,restaurant
N254307115;Berliner Stube;13.3346069;52.5028686;food,restaurant
N254307116;Steigenberger Berlin;13.3353908;52.5026896;accommodation,hotel
N254333065;Brot & Brötchen;13.3201386;52.4960875;shop,bakery
N254335459;U-Bahnhof Hohenzollernplatz;13.3236274;52.4933328;transport,busstop
N254378614;Jaloucity;13.3675383;52.4676623;shop,diy
N254500062;Paulstraße;13.3555091;52.5200280;transport,busstop
N254500064;Turmstraße/Rathenower Straße;13.3543717;52.5265254;transport,busstop
N254500065;Turmstraße/Rathenower Straße;13.3546541;52.5267626;transport,busstop
N254839386;Wendenschloß;13.5885926;52.4169658;transport,tramstop
N254862675;Edeka;13.4621306;52.4701156;shop,supermarket
N254992619;Floh;13.2634022;52.4879895;food,pub
N254992626;Steinecke;13.2630041;52.4879458;shop,bakery
N254992627;Pasta-Pizza;13.2628406;52.4878837;food,restaurant
N255049657;Haus Sanssouci;13.1642419;52.4337259;food,biergarten
N255049659;Flensburger Löwe;13.1649872;52.4338840;tourist,memorial
N255052973;Fook Lam Mun;13.1655280;52.4206302;food,restaurant
N255052976;Blockhaus Nikolskoe;13.1163106;52.4244424;food,restaurant
N255285538;Lutz Paul BrillenmacherBerlin;13.4115171;52.5126585;shop,departmentstore
N255328663;Shell Tankstelle;13.2721929;52.5191778;transport,fuel
N255328697;Jet;13.2340454;52.5270878;transport,fuel
N255336764;Berliner Sparkasse;13.4631766;52.4700200;money,bank
N255561542;S Hohenzollerndamm;13.3016683;52.4882895;transport,busstop
N255825174;Wildenbruch Apotheke;13.4401470;52.4818892;health,pharmacy
N255825368;Frühlicht-Apotheke;13.4395778;52.4803431;health,pharmacy
N256045565;Dubliner Straße;13.3484572;52.5622526;transport,busstop
N256754256;Kino Babylon;13.4114358;52.5258984;tourist,cinema
N256912446;Erwin von Witzleben Grundschule;13.2880437;52.5394411;education,school
N256913234;Poelchau-Oberschule;13.2878835;52.5385753;education,school
N256913872;Anna Freud Schule;13.2883255;52.5376587;education,school
N256922190;Stadtteilbibliothek Halemweg;13.2888659;52.5379749;amenity,library
N257096971;Lankwitz;13.3454858;52.4336977;poi,suburb
N257097215;Nikolassee;13.1981446;52.4262495;poi,suburb
N257704250;Sparkasse;13.2014606;52.5479088;money,bank
N257704877;LIDL;13.2100323;52.5476038;shop,supermarket
N257704934;Raymons - Das Fischrestaurant;13.2119152;52.5462582;food,restaurant
N257704939;Gögce Feinkost;13.2035869;52.5480051;shop,supermarket
N257705263;Postbank Finanzcenter;13.1980106;52.5338083;amenity,postoffice
N257708389;Brauhaus Spandau;13.2066054;52.5406075;food,biergarten
N257708789;Bezirkszentralbibliothek Spandau;13.2013864;52.5361334;amenity,library
N257709121;Kulturhaus Spandau;13.2023117;52.5354787;tourist,art
N257744411;Burger King;13.4773178;52.4874490;food,fastfood
N258050855;Apotheke am Amtsgericht;13.2972926;52.5069568;health,pharmacy
N258083766;Sophienclub;13.4019887;52.5251240;tourist,nightclub
N258117307;S Storkower Straße;13.4666203;52.5244629;transport,busstop
N258398258;Wirtshaus Hasenheide;13.4196583;52.4877929;food,restaurant
N258497093;Jajumi BBQ;13.4047999;52.5219316;food,restaurant
N258535790;Aral;13.3110209;52.4682682;transport,fuel
N259081139;Nordring Apotheke;13.4132338;52.5491533;health,pharmacy
N259081143;Vita Apotheke;13.4078879;52.5508917;health,pharmacy
N259157830;Alt Buch/Wiltbergstraße;13.4978037;52.6339594;transport,busstop
N259157831;Alt Buch/Wiltbergstraße;13.4984360;52.6338307;transport,busstop
N259157832;Theodor-Brugsch-Straße;13.4993472;52.6309658;transport,busstop
N259157833;Theodor-Brugsch-Straße;13.4990918;52.6300355;transport,busstop
N259247473;Gate 07;13.2790767;52.5079914;transport,busstop
N259247480;Gate 58;13.2792460;52.5073270;transport,busstop
N259247481;Gate 57;13.2793904;52.5072565;transport,busstop
N259247483;Gate 56;13.2795761;52.5071972;transport,busstop
N259247488;Gate 53;13.2801154;52.5072664;transport,busstop
N259247489;Gate 52;13.2802554;52.5073752;transport,busstop
N259411078;Freudstraße;13.1482259;52.5544390;transport,busstop
N259418364;Gedenkstätte KZ Sachsenhausen, Außenstelle Falkensee;13.1364855;52.5564029;tourist,memorial
N241490725;Nationaldenkmal;13.3815045;52.4876284;tourist,monument
N241650112;Neubabelsberg;13.1126480;52.4020930;poi,hamlet
N242769298;Abschnitt 22;13.2269115;52.5280167;amenity,police
N243457847;Anna-Ebermann-Straße;13.5124151;52.5551935;transport,tramstop
N243458026;Arnimstraße;13.5145413;52.5587048;transport,tramstop
N243458179;Rüdickenstraße;13.5101671;52.5599143;transport,tramstop
N243458261;Prerower Platz;13.5037009;52.5627532;transport,tramstop
N243460382;Freienwalder Straße;13.4927547;52.5442504;transport,tramstop
N243460732;Hohenschönhauser Straße/Weißenseer Weg;13.4738820;52.5356989;transport,tramstop
N243460915;Sportforum;13.4714189;52.5383790;transport,tramstop
N243460954;Betriebshof Indira-Gandhi-Straße;13.4686831;52.5442190;transport,tramstop
N243465044;Zingster Straße;13.4953426;52.5728599;transport,tramstop
N243465154;Zingster Straße;13.4948710;52.5723698;transport,tramstop
N243465657;Welsestraße;13.5258916;52.5692786;transport,tramstop
N243487615;Richard Wagner;13.3618553;52.5100729;tourist,art
N243828433;U-Bahnhof Leinestraße;13.4287656;52.4724740;transport,busstop
N243830926;Schalkauer Straße;13.5100153;52.5351836;transport,tramstop
N243847233;Virchow-Klinikum;13.3395775;52.5439128;transport,tramstop
N243848077;Osram-Höfe;13.3585272;52.5538317;transport,tramstop
N243848348;Louise-Schroeder-Platz;13.3667957;52.5570402;transport,tramstop
N243849130;Osloer Straße/Prinzenallee;13.3837614;52.5559072;transport,tramstop
N243849131;S Bornholmer Straße;13.3962829;52.5548305;transport,tramstop
N243850922;Rothenbachstraße;13.4377246;52.5700597;transport,tramstop
N243854585;Erich-Weinert-Straße;13.4285619;52.5475501;transport,tramstop
N243855398;Fröbelstraße;13.4258608;52.5419292;transport,tramstop
N243856643;Kleingartenanlage Bielefeldt;13.5193827;52.5192737;transport,tramstop
N243995876;U Frankfurter Tor;13.4540172;52.5153903;transport,tramstop
N243996096;Straßmannstraße;13.4500341;52.5229542;transport,tramstop
N243996833;U Tierpark;13.5240205;52.4967571;transport,tramstop
N243996834;Criegernweg;13.5215057;52.5013575;transport,tramstop
N243996913;Alt-Friedrichsfelde/Rhinstraße;13.5189987;52.5105762;transport,tramstop
N244118624;Abschnitt 55;13.4347588;52.4791560;amenity,police
N244129939;Klinikum im Friedrichshain;13.4401870;52.5241405;transport,tramstop
N244129991;Landsberger Allee/Petersburger Straße;13.4462368;52.5259343;transport,tramstop
N244484708;Gedenkstätte Berliner Mauer;13.3908576;52.5359069;transport,tramstop
N244486083;S+U Alexanderplatz/Dircksenstraße;13.4117675;52.5216060;transport,tramstop
N244486144;Mollstraße/Otto-Braun-Straße;13.4194191;52.5247633;transport,tramstop
N244487457;Torstraße/U Oranienburger Tor;13.3869724;52.5273503;transport,tramstop
N244487808;U Schwartzkopffstraße;13.3771815;52.5351951;transport,subway
N245235823;U Rathaus Reinickendorf;13.3249857;52.5888336;transport,busstop
N245261389;ALDI;13.3481470;52.5523111;shop,supermarket
N245261830;Zum Korken;13.3491178;52.5518269;food,restaurant
N245261831;Pfefferkorn;13.3387041;52.5503271;food,restaurant
N245266225;U Paracelsus-Bad;13.3476073;52.5752855;transport,busstop
N245266719;U Paracelsus-Bad;13.3470724;52.5745686;transport,busstop
N245287545;The Dude;13.4136358;52.5116793;accommodation,hotel
N245548434;Kopernikusstraße/Warschauer Straße;13.4526258;52.5105842;transport,tramstop
N245981373;Potsdamer Platz;13.3765983;52.5094982;tourist,attraction
N246522308;Lübarser Höhe;13.3705342;52.6101870;poi,peak
N247078379;Schildhorn;13.1994030;52.4943917;transport,busstop
N247078386;Schildhorn;13.1995089;52.4947371;transport,busstop
N247085869;Schildhorn;13.1995997;52.4947408;transport,busstop
N247115551;Mahlsdorfer Straße/Gehsener Straße;13.5835183;52.4629445;transport,tramstop
N247115795;Unter den Birken;13.5886074;52.4696309;transport,tramstop
N247115797;Wongrowitzer Steig;13.5853227;52.4669377;transport,tramstop
N247116364;Hultschiner Damm/Seestraße;13.6003908;52.4766078;transport,tramstop
N247116367;Roseggerstraße;13.6009450;52.4802990;transport,tramstop
N247116371;Erich-Baron-Weg;13.6017355;52.4829920;transport,tramstop
N247116372;Bütower Straße;13.6037313;52.4857009;transport,tramstop
N247119325;S Köpenick;13.5800655;52.4593448;transport,tramstop
N247120025;S Eichwalde;13.6155861;52.3707372;transport,station
N247140831;Hirtestraße/Janitzkystraße;13.5840793;52.4615755;transport,tramstop
N247140929;S Köpenick;13.5790435;52.4582153;transport,tramstop
N247141032;Hirtestraße;13.5844121;52.4604059;transport,tramstop
N247145793;Mahlsdorf-Süd;13.5991443;52.4741663;transport,tramstop
N247147355;Erich-Baron-Weg;13.6024518;52.4839672;transport,tramstop
N247149554;Eichenhofweg;13.6075748;52.4910038;transport,tramstop
N247150231;Bruchsaler Straße;13.6064139;52.4893741;transport,tramstop
N247153173;Ledebourstraße;13.6096169;52.4937607;transport,tramstop
N247154123;Alt-Mahlsdorf;13.6133347;52.5051992;transport,tramstop
N247156814;Rathenaustraße/Hochschule für Technik und Wirtschaft;13.5258742;52.4587748;transport,tramstop
N247158622;Treskowallee/Volkspark Wuhlheide;13.5172971;52.4711791;transport,tramstop
N247159172;Hegemeisterweg;13.5204016;52.4741663;transport,tramstop
N247159958;Marksburgstraße;13.5268446;52.4863564;transport,tramstop
N247338146;Stechlinstraße;13.5166189;52.4819985;transport,tramstop
N247350366;S Schöneweide;13.5105033;52.4557437;transport,tramstop
N247351455;S Schöneweide/Sterndamm;13.5096381;52.4534397;transport,tramstop
N247352251;Pietschkerstraße;13.5079617;52.4505494;transport,tramstop
N247352344;Sterndamm/Königsheideweg;13.5068261;52.4470965;transport,tramstop
N247354058;Johannisthal Kirche;13.5039698;52.4443550;transport,busstop
N247360444;U Vinetastraße;13.4133419;52.5594557;transport,subway
N247361247;Rathaus Köpenick;13.5743231;52.4453493;transport,tramstop
N247361594;Köllnischer Platz;13.5679960;52.4448698;transport,tramstop
N247362578;Ottomar-Geschke-Straße;13.5588281;52.4417915;transport,tramstop
N247362579;Ottomar-Geschke-Straße;13.5594516;52.4418687;transport,tramstop
N247387971;Berg-Apotheke;13.3267343;52.4910072;health,pharmacy
N247436786;Guyotstraße;13.4167576;52.6053946;transport,tramstop
N247437097;Französisch Buchholz Kirche;13.4335625;52.6068599;transport,tramstop
N247437514;Marienstraße/Pasewalker Straße;13.4315555;52.5926978;transport,tramstop
N247437538;Pasewalker Straße/Blankenburger Weg;13.4303202;52.5892660;transport,tramstop
N247437706;Pankower Straße;13.4289170;52.5851769;transport,tramstop
N247437951;Stiftsweg;13.4151516;52.5724332;transport,tramstop
N247441704;Nordendstraße;13.3882474;52.5887073;transport,tramstop
N247441829;Angerweg;13.3841200;52.5915645;transport,tramstop
N247441884;Hauptstraße/Friedrich-Engels-Straße;13.3768119;52.5968423;transport,tramstop
N247444383;Waldemarstraße;13.4062345;52.5908295;transport,tramstop
N247558961;U Lindauer Allee;13.3379243;52.5752247;transport,busstop
N247560407;S+U Karl-Bonhoeffer-Nervenklinik;13.3334673;52.5793491;transport,busstop
N247600965;S+U Friedrichstraße;13.3884107;52.5192805;transport,tramstop
N247603398;Am Kupfergraben;13.3953839;52.5194208;transport,tramstop
N247650295;Werderstraße;13.2100829;52.5670690;transport,busstop
N247687679;Shell Tankstelle;13.2084444;52.5588877;transport,fuel
N247689052;Schöneiche, Lübecker Straße;13.6987805;52.4647276;transport,busstop
N247700845;Biesdorfer Höhe;13.5724475;52.5076595;poi,peak
N247700930;Kienberg;13.5813909;52.5346937;poi,peak
N248010028;Sommerbad Neukölln;13.4151000;52.4807387;transport,busstop
N248077800;S Wilhelmsruh;13.3621312;52.5816602;transport,station
N248086110;S Wuhlheide;13.5534889;52.4690134;transport,station
N248651127;Z-Bar;13.3956385;52.5295259;food,bar
N248651464;I Due Forni;13.4125641;52.5308522;food,restaurant
N248652663;Zweistrom;13.4215808;52.5392109;food,fastfood
N248702772;Martin-Luther-Kapelle;13.2966171;52.6010205;pow,christian
N248778964;Ev. Hoffnungskirche;13.2950166;52.5926615;pow,christian
N249094185;Risa Chicken;13.4125055;52.5408674;food,fastfood
N249094437;Malzcafé;13.4141000;52.5406412;food,cafe
N249189069;S Humboldthain;13.3792576;52.5447617;transport,station
N249202158;Innungsstraße;13.3088746;52.5791133;transport,busstop
N249202159;Holzhauser Straße/Schubartstraße;13.3048887;52.5815915;transport,busstop
N249202160;Schubartstraße/Ernststraße;13.3025046;52.5841438;transport,busstop
N249221047;Sparkasse;13.3289891;52.5637254;money,bank
N249299050;Sonnenstudio Ambiente;13.4217330;52.5393205;shop,hairdresser
N249299067;SowohlAlsAuch;13.4204986;52.5382237;food,cafe
N259607063;Unvernunft;13.2020525;52.5355167;food,restaurant
N259607124;Hanff's Ruh;13.5991703;52.4078177;food,restaurant
N259607859;Wröhmännerpark;13.2061876;52.5420828;transport,busstop
N259608004;Wröhmännerpark;13.2055836;52.5419316;transport,busstop
N259608024;Kirchhofstraße;13.2076508;52.5450261;transport,busstop
N259608045;Kirchhofstraße;13.2085052;52.5455615;transport,busstop
N259608175;Spandower Zollhaus;13.2074190;52.5399218;food,restaurant
N259609019;Post;13.2010183;52.5489980;amenity,postoffice
N259609022;Hügelschanze;13.2010101;52.5482516;transport,busstop
N259609041;Hügelschanze;13.2006156;52.5488676;transport,busstop
N259609100;Predigergarten;13.2040721;52.5450761;transport,busstop
N259609124;Predigergarten;13.2033840;52.5454684;transport,busstop
N259797763;Berliner Kriminaltheater;13.4399455;52.5182037;tourist,theatre
N259805611;Hahneberg;13.1501569;52.5180595;poi,peak
N259814897;SB-Tankstelle;13.5403704;52.5214343;transport,fuel
N259835062;LIDL;13.1965568;52.5428752;shop,supermarket
N259845846;Junction-Bar;13.3931533;52.4913696;tourist,nightclub
N259845849;U Gneisenaustraße;13.3958247;52.4912895;transport,subway
N259855794;ALDI;13.2716801;52.5085368;shop,supermarket
N259858969;Rafih;13.2578049;52.5082357;food,restaurant
N259863450;Sparkasse;13.5714495;52.4127097;money,bank
N259974805;Agip;13.5649744;52.5722564;transport,fuel
N260050809;c-base;13.4201313;52.5129735;food,pub
N260286306;Windmühlenberg;13.1774660;52.4861539;poi,peak
N260286349;Bockwindmühle;13.1801678;52.4848012;tourist,windmill
N260454880;Berg Hohengatow;13.1673929;52.4733705;poi,peak
N260565389;Weisser Elefant;13.3191979;52.4895627;food,restaurant
N260565390;Garcon;13.3196727;52.4894921;food,restaurant
N260565983;La Cenetta;13.3204876;52.4877481;food,restaurant
N260565984;Bahadur;13.3192997;52.4878331;food,restaurant
N260589029;Brunsbütteler Damm/Stadtgrenze;13.1243028;52.5353118;transport,busstop
N260590089;Bohnsdorf Kirche;13.5546876;52.3991353;transport,busstop
N260620359;S Lichterfelde Ost;13.3277975;52.4297557;transport,station
N260631456;Agip;13.1749772;52.5171696;transport,fuel
N260631653;Sprint;13.1911490;52.5361004;transport,fuel
N260744445;Total;13.4785627;52.4837343;transport,fuel
N260753892;McDonald's;13.3711438;52.4695529;food,fastfood
N260753895;Aral;13.3709897;52.4700245;transport,fuel
N260759770;Berlin-Lichterfelde Ost;13.3291695;52.4298599;transport,station
N260760064;Alt-Müggelheim;13.6658910;52.4101491;transport,busstop
N260768733;CineStar Original & IMAX;13.3726836;52.5101142;tourist,cinema
N260768839;Deutsche Kinemathek - Museum für Film und Fernsehen;13.3735100;52.5096032;tourist,museum
N260769007;Kaisersaal;13.3743411;52.5098082;food,restaurant
N260769037;Lindenbräu;13.3726675;52.5102921;food,restaurant
N260797809;Waldstraße/Stadtgrenze;13.5709881;52.3899275;transport,busstop
N260811976;Julius-Leber-Kaserne;13.3251240;52.5609957;transport,busstop
N260811986;Julius-Leber-Kaserne;13.3254167;52.5613007;transport,busstop
N260865620;Taut-Apotheke;13.5726148;52.4122898;health,pharmacy
N260866916;Dittmanns Drogerie;13.5856652;52.4029635;food,restaurant
N260954804;Berufsfeuerwache Spandau-Nord (3100);13.2098160;52.5449832;amenity,firestation
N261199658;Schmöckwitz-Siedlung;13.6174478;52.3794322;poi,hamlet
N261585960;Großer Müggelberg;13.6426458;52.4167743;poi,peak
N261600570;Kleiner Bunkerberg;13.4363762;52.5279648;poi,peak
N261606214;Restaurant Schönbrunn;13.4338660;52.5280050;food,restaurant
N261606215;Freiluftkino Friedrichshain;13.4353913;52.5253256;tourist,cinema
N261606217;Weltfriedensglocke;13.4340796;52.5268550;tourist,memorial
N261670146;Grünau;13.5805633;52.4154272;poi,suburb
N261713255;Alt-Treptow;13.4598743;52.4925634;poi,suburb
N261713413;Plänterwald;13.4788076;52.4795439;poi,suburb
N261743904;Rewe;13.3291604;52.5276119;shop,supermarket
N261744064;Turmstraße/Beusselstraße;13.3296429;52.5271838;transport,busstop
N261744735;Turmstraße/Beusselstraße;13.3288063;52.5279396;transport,busstop
N261744786;S Schöneweide;13.5090923;52.4553601;transport,station
N261745103;Alt-Moabit/Gotzkowskystraße;13.3306885;52.5238323;transport,busstop
N261745174;Alt-Moabit/Gotzkowskystraße;13.3309756;52.5240590;transport,busstop
N261745198;Alt-Moabit/Gotzkowskystraße;13.3299224;52.5242043;transport,busstop
N261745751;Deutsche Bank;13.3331941;52.5061478;money,bank
N261748392;Feuerleitturm;13.3871557;52.5442976;tourist,memorial
N261750068;S Treptower Park;13.4624207;52.4942132;transport,station
N261751113;S Plänterwald;13.4738420;52.4780482;transport,station
N261752826;S Plänterwald;13.4744614;52.4790013;transport,busstop
N261855390;S Baumschulenweg;13.4890939;52.4680304;transport,station
N261894337;Denkmal für die Maueropfer in Berlin-Treptow;13.4710965;52.4766639;tourist,memorial
N261941954;S Treptower Park;13.4618296;52.4938491;transport,station
N261963290;Grüne Apotheke;13.4566490;52.4905931;health,pharmacy
N261964988;Bundeskriminalamt Sicherungsgruppe Berlin;13.4544840;52.4910067;amenity,police
N261965140;Gemeinsames Terrorismusabwehrzentrum;13.4545527;52.4927836;amenity,police
N262088144;S Kaulsdorf;13.5892775;52.5128063;transport,busstop
N262089093;Menzelstraße;13.6223674;52.5138347;transport,busstop
N262130415;Karolinenhof;13.6350687;52.3918603;poi,hamlet
N262130813;Rauchfangswerder;13.6464842;52.3454282;poi,hamlet
N262130957;Schmöckwitzwerder;13.6942133;52.3717558;poi,hamlet
N262150017;Alt-Schmöckwitz;13.6495792;52.3759221;transport,busstop
N262194409;Enddorn;13.4162759;52.5334428;food,pub
N262201609;Siedlung Wartenberg/Straße 3;13.5268843;52.5816752;transport,busstop
N262201692;Ostweg;13.4955022;52.4490160;transport,busstop
N262201694;Siedlung Wartenberg/Straße 6;13.5297912;52.5811401;transport,busstop
N262213475;Möllendorff-Apotheke;13.4800051;52.5241575;health,pharmacy
N262239555;Wasserschutzpolizei Wache 4;13.4957713;52.4712681;amenity,police
N262314175;Leonardo Airport Berlin-Brandenburg;13.5367764;52.3976851;accommodation,hotel
N262314379;Hotel Garni El-Condor;13.5311912;52.3969848;accommodation,hotel
N262314742;Waltersdorfer Straße;13.5723107;52.4047025;transport,busstop
N262318783;Total;13.4568677;52.4531242;transport,fuel
N262322666;S Baumschulenweg;13.4900056;52.4671989;transport,station
N262326860;Krematorium Baumschulenweg;13.4943421;52.4604492;transport,busstop
N262328057;Friedrichshain;13.4502904;52.5122154;poi,suburb
N262328235;Kreuzberg;13.4119140;52.4976443;poi,suburb
N262329281;Baumschulenweg;13.4815479;52.4616938;poi,suburb
N262343346;Chausseehaus;13.6157898;52.4295527;transport,busstop
N262353263;Kaufland;13.5075164;52.4574341;shop,supermarket
N262353303;McDonald's;13.5091368;52.4562295;food,fastfood
N262353377;Eiscafé Adriana;13.5091314;52.4565597;food,cafe
N262355894;Edeka;13.4623106;52.5156150;shop,supermarket
N262359118;Sala Thai;13.4687505;52.5152058;food,restaurant
N262362041;hd-computer;13.4221327;52.4880466;shop,computer
N262362263;Conrad;13.4210836;52.4875784;shop,hifi
N262363649;Dänisches Bettenlager;13.4647723;52.5228395;shop,departmentstore
N262363654;Penny;13.4644880;52.5229186;shop,supermarket
N262364878;Erdmann und Schwarz;13.4634696;52.5150422;shop,butcher
N262365563;Feinbäckerei Wenzel;13.4637616;52.5150119;shop,bakery
N262366174;Subway;13.4627183;52.5151353;food,fastfood
N262455591;Reiterstandbild Friedrich II. von Preußen;13.3927431;52.5172530;tourist,art
N262455810;Neue Wache;13.3955950;52.5178559;tourist,memorial
N262457570;Schiller-Denkmal;13.3926490;52.5136272;tourist,memorial
N262462062;Ristorante a Mano;13.4276134;52.5193671;food,restaurant
N262462848;Büste Karl Marx;13.4289352;52.5179831;tourist,memorial
N262525336;Denkmal zur Erinnerung an die Bücherverbrennung;13.3939369;52.5165158;tourist,memorial
N262652924;Markgrafendamm;13.4657224;52.4991000;transport,busstop
N262818281;Sky Club;13.4163878;52.5232790;tourist,nightclub
N262879310;Gemeindebibliothek Eichwalde;13.6199046;52.3744012;amenity,library
N262882408;Zum Seeblick;13.6452357;52.3828931;transport,busstop
N262943658;Hangmee;13.4576396;52.5129554;food,restaurant
N262991360;Wasserschutzpolizeirevier;13.7415403;52.4266882;amenity,police
N262991419;Jugendclub Erkner "Haus am See";13.7420676;52.4262221;tourist,theatre
N263026875;Bahnhofsiedlung;13.7491287;52.4369592;poi,hamlet
N263048097;Am Rund;13.7490441;52.4381307;transport,busstop
N263055655;Förderschule;13.7484636;52.4374350;education,school
N263125699;S Innsbrucker Platz;13.3406305;52.4781690;transport,station
N263141157;Aroser Allee/Gotthardstraße;13.3511376;52.5680734;transport,busstop
N263238363;Klein Glienicke;13.1025652;52.4094418;poi,suburb
N263250130;Steinstücken;13.1295973;52.3893314;poi,suburb
N263577639;U Rathaus Neukölln;13.4342159;52.4815720;transport,subway
N263679066;Bezirkszentralbibliothek Mark Twain;13.5567040;52.5472200;amenity,library
N263679887;Blumberger Damm/Mehrower Allee;13.5737178;52.5553162;transport,busstop
N263679894;Blumberger Damm/Mehrower Allee;13.5738805;52.5551885;transport,busstop
N263699380;Robinson Apotheke;13.5829000;52.5176810;health,pharmacy
N263701477;Gaststätte zur S-Bahn;13.5878692;52.5124404;food,restaurant
N263703380;St. Martin;13.6034638;52.5148276;pow,christian
N263703385;Gasthof zum Oberfeld;13.5935903;52.5157169;food,restaurant
N263703829;Star - Jennifer Bulst;13.5635805;52.5132492;transport,fuel
N263703997;Aral;13.5387103;52.5103423;transport,fuel
N263704564;Postbank Finanzcenter;13.4909757;52.5115657;amenity,postoffice
N264113512;Ehrenpfortenberg;13.2714126;52.6139479;poi,peak
N264193115;Shell;13.3005814;52.6160844;transport,fuel
N264226500;S-Bahnhof Hermsdorf;13.3072884;52.6186992;transport,busstop
N264383103;Eiskeller;13.1332601;52.5843726;tourist,memorial
N264620848;Rewe;13.5714829;52.5565629;shop,supermarket
N264645629;Rewe;13.3117953;52.4686357;shop,supermarket
N264776935;Ibero-Amerikanisches Institut;13.3697010;52.5068092;amenity,library
N264964200;Freiwillige Feuerwehr Hellersdorf;13.5896802;52.5299839;amenity,firestation
N265052334;Flughafen Tegel;13.2925935;52.5541677;transport,busstop
N265052413;Flughafen Tegel;13.2919734;52.5538602;transport,busstop
N265757799;Am Volkspark;13.3197763;52.4836084;transport,busstop
N265767348;Waltersdorfer Straße;13.5729398;52.4052795;transport,busstop
N266540876;Bezirkszentralbibliothek Philipp Schaeffer;13.3986959;52.5316059;amenity,library
N266540877;wombat's;13.4089496;52.5284357;accommodation,hostel
N266559224;Wuhletalstraße;13.5680450;52.5573513;transport,tramstop
N266593733;Hotel ibis Berlin Mitte;13.4181101;52.5290575;accommodation,hotel
N266614884;Berliner Volksbank;13.5862843;52.5114264;money,bank
N266623061;Rewe;13.5903932;52.5045641;shop,supermarket
N266623118;ALDI;13.5898783;52.5041592;shop,supermarket
N266629176;SB-Tank;13.5880280;52.5053636;transport,fuel
N266629317;Kaulsdorfer Apotheke;13.5882447;52.5079266;shop,departmentstore
N266629404;Nah und gut;13.5874999;52.5092086;shop,convenience
N266629485;Stadtteilbibliothek Mahlsdorf;13.6127893;52.5055546;amenity,library
N266629927;Sparkasse;13.6135549;52.5087490;money,bank
N266630320;Buergeramt Mahlsdorf;13.6120626;52.5131400;tourist,theatre
N266630558;Burger King;13.6070023;52.5054482;food,fastfood
N266630604;Georginen-Apotheke;13.6122168;52.5111532;health,pharmacy
N266632232;Mahlsdorfer Apotheke;13.6138267;52.5092745;health,pharmacy
N266674656;Neue Medikus Apotheke;13.5920440;52.5071368;health,pharmacy
N266680057;Gasthaus & Pension Domino;13.5985472;52.5070039;accommodation,hotel
N266962352;S Olympiastadion;13.2428280;52.5112644;transport,station
N266980763;Waldhornstraße;13.3060170;52.6018835;transport,busstop
N267090674;Rad Company;13.3612843;52.4911635;shop,bicycle
N267245380;Mein Brotkorb;13.1813893;52.5115693;shop,bakery
N267245397;Asia Snack 58;13.1813993;52.5114588;food,fastfood
N267245609;La Posta Trattoria;13.1811526;52.5093453;food,restaurant
N267245623;Kentucky Fried Chicken;13.1846647;52.5164606;food,fastfood
N267246999;Hotel Villa Kastania Berlin;13.2680576;52.5103196;accommodation,hotel
N267250949;Rehborner Straße;13.6729955;52.4188090;transport,busstop
N267250957;Müggelheim/Dorf;13.6622187;52.4122718;transport,busstop
N267350284;S+U Rathaus Steglitz/Kreisel;13.3222052;52.4561756;transport,busstop
N267366952;Wins-Apotheke;13.4270950;52.5360415;health,pharmacy
N267379240;Berlin Südkreuz;13.3660396;52.4765716;transport,station
N267385041;U Jakob-Kaiser-Platz;13.2931121;52.5367009;transport,busstop
N267391777;Büste Friedrich II. von Preußen;13.4344530;52.5258090;tourist,memorial
N267399031;Weltlingerbrücke;13.2952235;52.5393392;transport,busstop
N267405808;Postbank;13.4223153;52.5352609;money,bank
N267412672;Die Henne - Alt-Berliner Wirtshaus;13.4178117;52.5041376;food,restaurant
N270456753;S Wuhlheide;13.5535712;52.4694507;transport,busstop
N270595145;Esso;13.3905571;52.4927013;transport,fuel
N270660704;Blumen- und Gartenkunst GmbH Tunger-Schnur;13.3514595;52.5244131;shop,florist
N270667310;Café Viktoria;13.3483549;52.5146541;food,cafe
N270687313;Otto von Bismarck;13.3497493;52.5158896;tourist,memorial
N270718978;S+U Alexanderplatz/Memhardstraße;13.4109916;52.5231507;transport,busstop
N270719334;Memhardstraße;13.4108124;52.5232933;transport,busstop
N270719384;Sommermeyer;13.3445889;52.4374306;shop,diy
N270720402;Mollstraße/Prenzlauer Allee;13.4148233;52.5264119;transport,busstop
N270727248;S+U Alexanderplatz;13.4087393;52.5220952;transport,busstop
N270727260;S+U Alexanderplatz/Memhardstraße;13.4102401;52.5229240;transport,busstop
N270737264;Reuchlinstraße;13.3244398;52.5277778;transport,busstop
N270737265;Reuchlinstraße;13.3233716;52.5280449;transport,busstop
N270737268;Wiebestraße/Huttenstraße;13.3198902;52.5284174;transport,busstop
N270737270;Wiebestraße/Huttenstraße;13.3201729;52.5282134;transport,busstop
N270737272;Neues Ufer;13.3150835;52.5295562;transport,busstop
N270737274;Neues Ufer;13.3160460;52.5290463;transport,busstop
N270742543;FahrRadCity;13.3774423;52.5421157;shop,bicycle
N270792948;Brienzer Straße;13.3596021;52.5620134;transport,busstop
N270793632;ALDI;13.7144332;52.4315294;shop,supermarket
N270814670;Club A18;13.2155914;52.4286425;food,pub
N270814671;Hostel;13.2146305;52.4284941;accommodation,hostel
N270814682;Tankstelle Krumme Lanke;13.2419001;52.4440966;transport,fuel
N270814683;Aral;13.2424098;52.4444646;transport,fuel
N270814685;Rewe City;13.2404658;52.4423200;shop,supermarket
N270814692;Edeka;13.2159158;52.4268546;shop,supermarket
N270814693;Arcobaleno;13.2172579;52.4272121;food,cafe
N270814695;Textilpflege Steeger;13.2161595;52.4269674;shop,laundrette
N270814696;Shell;13.2232310;52.4296886;transport,fuel
N270814713;Studentendorf Schlachtensee;13.2152545;52.4291440;tourist,memorial
N270814718;Kur-Apotheke;13.2196207;52.4322633;health,pharmacy
N270814721;Die Dorotheen Apotheke;13.2165970;52.4271388;health,pharmacy
N270905554;Arbeiterdurchgangslager in Berlin-Wilhelmshagen;13.7206190;52.4384947;tourist,memorial
N270905719;Freiwillige Feuerwehr Wilhelmshagen;13.7161570;52.4367173;amenity,firestation
N270906159;Rosen-Apotheke Berlin;13.7098785;52.4327628;health,pharmacy
N270915509;Berliner Volksbank;13.5667532;52.5705858;money,bank
N270921289;Waldschänke;13.2092834;52.4262934;food,restaurant
N270923263;Sparkasse;13.7198748;52.4388845;money,bank
N270927391;Grabbeallee/Pastor-Niemöller-Platz;13.3983466;52.5790250;transport,tramstop
N270940131;ARAL;13.3016781;52.5077825;transport,fuel
N270961500;Seequell;13.3616898;52.5550162;food,pub
N270965139;McDonald's;13.7433883;52.4281692;food,fastfood
N270999645;Reinigung;13.5732190;52.5735077;shop,laundrette
N271005164;Restaurant Angkor Wat;13.3558888;52.5201925;food,restaurant
N271224642;Rodelbahn;13.3506608;52.4304768;amenity,playground
N271282692;Kolberger Apotheke;13.3735976;52.5439890;health,pharmacy
N271295817;Spandauer Straße/Marienkirche;13.4057963;52.5203171;transport,busstop
N271296143;Spandauer Straße/Marienkirche;13.4060712;52.5208773;transport,busstop
N271296293;Staatsoper;13.3943657;52.5174204;transport,busstop
N271327606;Mollstraße/Otto-Braun-Straße;13.4206254;52.5260293;transport,busstop
N271330911;Dahlback;13.5896420;52.5128280;shop,bakery
N271373068;S+U Brandenburger Tor;13.3829693;52.5167863;transport,busstop
N271388393;S+U Brandenburger Tor;13.3824171;52.5164428;transport,busstop
N271405514;Havel-Apotheke;13.1981714;52.5320913;health,pharmacy
N271411051;S Grunewald;13.2596163;52.4889363;transport,busstop
N271411052;Alte Allee;13.2633920;52.4917285;transport,busstop
N271411053;Alte Allee;13.2635363;52.4919813;transport,busstop
N271411054;Kiefernweg;13.2652560;52.4932064;transport,busstop
N271411055;Kiefernweg;13.2654429;52.4934897;transport,busstop
N271411056;Maikäferpfad;13.2667980;52.4944279;transport,busstop
N271411057;Maikäferpfad;13.2668912;52.4946289;transport,busstop
N271411059;S Messe Süd;13.2700806;52.4969937;transport,busstop
N271411060;Jafféstraße;13.2730752;52.4996483;transport,busstop
N271411061;Jafféstraße;13.2733884;52.4996474;transport,busstop
N271411062;Messegelände/Verwaltung;13.2752838;52.5011555;transport,busstop
N271411063;Messegelände/Verwaltung;13.2750822;52.5012328;transport,busstop
N271411064;Messegelände/ICC;13.2797314;52.5044754;transport,busstop
N271411065;Messegelände/ICC;13.2792200;52.5044808;transport,busstop
N271419829;Zillestraße;13.2965692;52.5136934;transport,busstop
N271419830;Zillestraße;13.2971338;52.5129141;transport,busstop
N271419831;Seelingstraße;13.2966915;52.5167307;transport,busstop
N271419833;Seelingstraße;13.2962427;52.5157314;transport,busstop
N271419834;Schloss Charlottenburg;13.2963489;52.5188255;transport,busstop
N271419837;Luisenplatz/Schloss Charlottenburg;13.2995189;52.5191611;transport,busstop
N271419838;Mierendorffplatz;13.3051131;52.5257923;transport,busstop
N271419839;Mierendorffplatz;13.3059000;52.5260178;transport,busstop
N271419841;Ilsenburger Straße;13.3094876;52.5256566;transport,busstop
N271419842;Ilsenburger Straße;13.3102887;52.5258340;transport,busstop
N271419843;Goslarer Platz;13.3142190;52.5258442;transport,busstop
N271419844;Goslarer Platz;13.3142951;52.5256956;transport,busstop
N271430924;Berliner Rathaus;13.4085322;52.5174754;transport,busstop
N271458829;Bohnsdorf Kirche;13.5557395;52.3997560;transport,busstop
N271668412;Croissanterie Sunar;13.3609478;52.4882026;food,cafe
N271668766;Aspendos;13.3580797;52.4882865;food,restaurant
N271670135;U Alexanderplatz;13.4147617;52.5227363;transport,busstop
N271685475;Philologische Bibliothek;13.2882826;52.4518372;amenity,library
N271691568;Europcar;13.4419991;52.4656038;transport,rentalcar
N271691604;Schnell & Sauber SB-Waschcenter;13.4423671;52.4672545;shop,laundrette
N271694048;clean Point;13.4421650;52.4681557;shop,laundrette
N271707291;Charlotten-Apotheke;13.2018939;52.5360044;health,pharmacy
N271707886;Santander;13.2030227;52.5369021;money,bank
N271708368;Deutsche Bank;13.2048418;52.5367341;money,bank
N271708583;Sparkasse;13.2053397;52.5366871;money,bank
N271708716;Altstadt Apotheke;13.2051862;52.5365840;health,pharmacy
N271708914;Löwen-Apotheke;13.2060246;52.5376866;health,pharmacy
N271710347;Berliner Bank;13.2044788;52.5379015;money,bank
N271710934;Adler-Apotheke;13.2036654;52.5376635;health,pharmacy
N271713876;Apotheke;13.2059594;52.5429080;health,pharmacy
N271738194;Edeka;13.2047625;52.5374738;shop,supermarket
N271749622;Kaiser-Friedrich-Gedächtniskirche;13.3424624;52.5152456;pow,christian
N271766267;acama;13.3864680;52.4980285;accommodation,hostel
N271766938;U Eberswalder Straße;13.4116749;52.5410374;transport,tramstop
N271770213;Melanchthon-Kirche;13.1888594;52.5212898;pow,christian
N271771727;St. Marien am Behnitz;13.2078818;52.5391038;pow,christian
N271773180;Greifswalder Straße/Danziger Straße;13.4325586;52.5363204;transport,tramstop
N271773181;Greifswalder Straße/Danziger Straße;13.4335857;52.5359594;transport,tramstop
N271774347;Greifswalder Straße/Danziger Straße;13.4327418;52.5358897;transport,tramstop
N271774348;Greifswalder Straße/Danziger Straße;13.4334045;52.5364975;transport,tramstop
N271775909;Arnswalder Platz;13.4377297;52.5339694;transport,tramstop
N271777824;Kniprodestraße/Danziger Straße;13.4406868;52.5325286;transport,tramstop
N271777826;Landsberger Allee/Petersburger Straße;13.4469986;52.5270610;transport,tramstop
N271779546;Spreestraße;13.6156193;52.4470512;transport,tramstop
N271788599;Bötzowstraße;13.4298354;52.5287349;transport,busstop
N271788600;Bötzowstraße;13.4309646;52.5288689;transport,busstop
N271791140;Conrad-Blenkle-Straße;13.4446730;52.5340422;transport,busstop
N271791837;Kniprodestraße/Storkower Straße;13.4487726;52.5368145;transport,busstop
N271791921;Stedingerweg;13.4519071;52.5388364;transport,busstop
N271791976;Kniprodestraße/Storkower Straße;13.4500715;52.5374541;transport,busstop
N271792258;Stedingerweg;13.4530345;52.5394412;transport,busstop
N271867925;Lidl;13.4188473;52.5147625;shop,supermarket
N271867926;Burger King;13.4193440;52.5146598;food,fastfood
N271875991;Fachbereichsbibliothek;13.2911582;52.4538456;amenity,library
N271876298;Die Leckerei;13.1890809;52.5368767;shop,bakery
N271878787;Arnimallee;13.2998613;52.4580086;transport,busstop
N271878802;Arnimallee;13.2992959;52.4577747;transport,busstop
N271882472;Shell;13.4430158;52.4652723;transport,fuel
N271884565;Memhardstraße;13.4103120;52.5240680;transport,busstop
N271891568;Targobank;13.3419550;52.5011008;money,bank
N271936777;Wirtshaus Zur Pfaueninsel;13.1223345;52.4283069;food,restaurant
N271977443;Keplerstraße;13.3050026;52.5282853;transport,busstop
N271977449;S+U Jungfernheide;13.2994803;52.5308315;transport,busstop
N272004025;Cineplex;13.2063427;52.5385009;tourist,cinema
N272247519;Penny;13.4374685;52.4560576;shop,supermarket
N272247672;Edeka;13.4373312;52.4574201;shop,supermarket
N272249104;Apotheke am Ziegelhof;13.1960626;52.5286784;health,pharmacy
N272364542;Reichstag/Bundestag;13.3765218;52.5176705;transport,busstop
N272367044;Schloss Bellevue;13.3541577;52.5167915;transport,busstop
N272367516;Schloss Bellevue;13.3543720;52.5167434;transport,busstop
N272372358;Lützowplatz;13.3518007;52.5049617;transport,busstop
N272372640;Lützowplatz;13.3515345;52.5050794;transport,busstop
N272375714;Schillstraße;13.3481645;52.5034269;transport,busstop
N272378348;Bayreuther Straße;13.3435117;52.5046090;transport,busstop
N272379337;Bayreuther Straße;13.3440796;52.5043204;transport,busstop
N272385616;Jäger Apotheke;13.1970215;52.5211632;health,pharmacy
N272385919;Adam Apotheke;13.1948184;52.5208942;health,pharmacy
N272386317;Pichelsdorf Apotheke;13.1971411;52.5254705;health,pharmacy
N272386374;S+U Zoologischer Garten;13.3333375;52.5072383;transport,busstop
N272386375;S+U Zoologischer Garten;13.3331881;52.5070495;transport,busstop
N272386376;S+U Zoologischer Garten;13.3330373;52.5068617;transport,busstop
N272386377;S+U Zoologischer Garten;13.3332200;52.5068087;transport,busstop
N272386378;S+U Zoologischer Garten;13.3333660;52.5069991;transport,busstop
N272386379;S+U Zoologischer Garten;13.3335129;52.5071903;transport,busstop
N272404753;Fahrrad-Galerie Schlaphoff;13.1959130;52.5277439;shop,bicycle
N272406395;Schaubühne am Lehniner Platz;13.3022747;52.4986606;tourist,theatre
N272408975;Unter den Linden/Friedrichstraße;13.3883238;52.5171394;transport,busstop
N272409455;Unter den Linden/Friedrichstraße;13.3899275;52.5168173;transport,busstop
N272418457;Corneliusbrücke;13.3487971;52.5075478;transport,busstop
N272418849;Corneliusbrücke;13.3483830;52.5076011;transport,busstop
N272421409;Nordische Botschaften/Adenauer-Stiftung;13.3521129;52.5095788;transport,busstop
N272425680;Philharmonie;13.3684926;52.5104082;transport,busstop
N272436770;S+U Potsdamer Platz;13.3785610;52.5095134;transport,busstop
N272437495;S+U Potsdamer Platz;13.3781205;52.5097353;transport,busstop
N272441719;U Mohrenstraße;13.3832536;52.5117929;transport,busstop
N272441720;U Mohrenstraße;13.3835490;52.5112361;transport,busstop
N272446730;Trattoria Piazza Siciliana;13.2304023;52.4303602;food,restaurant
N272499930;Ringbahn-Apotheke;13.4421953;52.4678648;health,pharmacy
N272517807;JET Tankstelle;13.3744405;52.4891927;transport,fuel
N272593724;eßkultur;13.2925424;52.4563480;food,cafe
N272594262;Mensa FU II;13.2890712;52.4531000;food,restaurant
N272607235;Union Tanke;13.5779548;52.4594244;food,pub
N272662737;Kaiser Apotheke;13.3939616;52.4889422;health,pharmacy
